{
"type": "FeatureCollection",
"name": "kiev_places_points",
"crs": { "type": "name", "properties": { "name": "urn:ogc:def:crs:OGC:1.3:CRS84" } },
"features": [
{ "type": "Feature", "properties": { "element": "node", "id": 26150796, "name": "Бориспіль" }, "geometry": { "type": "Point", "coordinates": [ 30.95077, 50.3512101 ] } },
{ "type": "Feature", "properties": { "element": "node", "id": 26150796, "name": "Бориспіль" }, "geometry": { "type": "Point", "coordinates": [ 30.95077, 50.3512101 ] } },
{ "type": "Feature", "properties": { "element": "node", "id": 36505064, "name": "Ірпінь" }, "geometry": { "type": "Point", "coordinates": [ 30.2448725, 50.5206777 ] } },
{ "type": "Feature", "properties": { "element": "node", "id": 36507630, "name": "Вишневе" }, "geometry": { "type": "Point", "coordinates": [ 30.3678999, 50.3917497 ] } },
{ "type": "Feature", "properties": { "element": "node", "id": 36507632, "name": "Боярка" }, "geometry": { "type": "Point", "coordinates": [ 30.2847595, 50.3356709 ] } },
{ "type": "Feature", "properties": { "element": "node", "id": 36564513, "name": "Петрушки" }, "geometry": { "type": "Point", "coordinates": [ 30.162504, 50.42165 ] } },
{ "type": "Feature", "properties": { "element": "node", "id": 36564515, "name": "Дмитрівка" }, "geometry": { "type": "Point", "coordinates": [ 30.1757337, 50.4605965 ] } },
{ "type": "Feature", "properties": { "element": "node", "id": 127834997, "name": "Чорнобиль" }, "geometry": { "type": "Point", "coordinates": [ 30.2195609, 51.2705477 ] } },
{ "type": "Feature", "properties": { "element": "node", "id": 127835001, "name": "Прип’ять" }, "geometry": { "type": "Point", "coordinates": [ 30.0573963, 51.4059655 ] } },
{ "type": "Feature", "properties": { "element": "node", "id": 255259998, "name": "Біла Церква" }, "geometry": { "type": "Point", "coordinates": [ 30.1158069, 49.7969703 ] } },
{ "type": "Feature", "properties": { "element": "node", "id": 257541146, "name": "Бузова" }, "geometry": { "type": "Point", "coordinates": [ 30.0434386, 50.4165548 ] } },
{ "type": "Feature", "properties": { "element": "node", "id": 257542221, "name": "Музичі" }, "geometry": { "type": "Point", "coordinates": [ 30.107588, 50.360413 ] } },
{ "type": "Feature", "properties": { "element": "node", "id": 257542221, "name": "Музичі" }, "geometry": { "type": "Point", "coordinates": [ 30.107588, 50.360413 ] } },
{ "type": "Feature", "properties": { "element": "node", "id": 257543231, "name": "Жорнівка" }, "geometry": { "type": "Point", "coordinates": [ 30.164751, 50.320969 ] } },
{ "type": "Feature", "properties": { "element": "node", "id": 271739588, "name": "Мартусівка" }, "geometry": { "type": "Point", "coordinates": [ 30.8641, 50.307793 ] } },
{ "type": "Feature", "properties": { "element": "node", "id": 271740901, "name": "Проців" }, "geometry": { "type": "Point", "coordinates": [ 30.787992, 50.246181 ] } },
{ "type": "Feature", "properties": { "element": "node", "id": 271740945, "name": "Ревне" }, "geometry": { "type": "Point", "coordinates": [ 30.835356, 50.287071 ] } },
{ "type": "Feature", "properties": { "element": "node", "id": 271740955, "name": "Гора" }, "geometry": { "type": "Point", "coordinates": [ 30.86204, 50.374039 ] } },
{ "type": "Feature", "properties": { "element": "node", "id": 271740955, "name": "Гора" }, "geometry": { "type": "Point", "coordinates": [ 30.86204, 50.374039 ] } },
{ "type": "Feature", "properties": { "element": "node", "id": 271741408, "name": "Петропавлівське" }, "geometry": { "type": "Point", "coordinates": [ 30.823359, 50.32616 ] } },
{ "type": "Feature", "properties": { "element": "node", "id": 271757831, "name": "Бзів" }, "geometry": { "type": "Point", "coordinates": [ 31.216837, 50.314293 ] } },
{ "type": "Feature", "properties": { "element": "node", "id": 271760955, "name": "Рогозів" }, "geometry": { "type": "Point", "coordinates": [ 31.054955, 50.233883 ] } },
{ "type": "Feature", "properties": { "element": "node", "id": 271760955, "name": "Рогозів" }, "geometry": { "type": "Point", "coordinates": [ 31.054955, 50.233883 ] } },
{ "type": "Feature", "properties": { "element": "node", "id": 271760983, "name": "Глибоке" }, "geometry": { "type": "Point", "coordinates": [ 30.938709, 50.261719 ] } },
{ "type": "Feature", "properties": { "element": "node", "id": 271767889, "name": "Кийлів" }, "geometry": { "type": "Point", "coordinates": [ 30.884534, 50.1485078 ] } },
{ "type": "Feature", "properties": { "element": "node", "id": 271767894, "name": "Старе" }, "geometry": { "type": "Point", "coordinates": [ 31.080122, 50.148376 ] } },
{ "type": "Feature", "properties": { "element": "node", "id": 289308798, "name": "Вишгород" }, "geometry": { "type": "Point", "coordinates": [ 30.485121, 50.5824332 ] } },
{ "type": "Feature", "properties": { "element": "node", "id": 289308798, "name": "Вишгород" }, "geometry": { "type": "Point", "coordinates": [ 30.485121, 50.5824332 ] } },
{ "type": "Feature", "properties": { "element": "node", "id": 292790837, "name": "Андріївка" }, "geometry": { "type": "Point", "coordinates": [ 31.070087, 50.397743 ] } },
{ "type": "Feature", "properties": { "element": "node", "id": 292790838, "name": "Горобіївка" }, "geometry": { "type": "Point", "coordinates": [ 31.021585, 50.419685 ] } },
{ "type": "Feature", "properties": { "element": "node", "id": 292790839, "name": "Сеньківка" }, "geometry": { "type": "Point", "coordinates": [ 31.083513, 50.434975 ] } },
{ "type": "Feature", "properties": { "element": "node", "id": 292790927, "name": "Велика Стариця" }, "geometry": { "type": "Point", "coordinates": [ 31.082155, 50.44796 ] } },
{ "type": "Feature", "properties": { "element": "node", "id": 295809934, "name": "Берестянка" }, "geometry": { "type": "Point", "coordinates": [ 29.990753, 50.691078 ] } },
{ "type": "Feature", "properties": { "element": "node", "id": 295809935, "name": "Нове Залісся" }, "geometry": { "type": "Point", "coordinates": [ 29.9716001, 50.6925296 ] } },
{ "type": "Feature", "properties": { "element": "node", "id": 295809953, "name": "Бородянка" }, "geometry": { "type": "Point", "coordinates": [ 29.9278296, 50.6437677 ] } },
{ "type": "Feature", "properties": { "element": "node", "id": 298902469, "name": "Шпитьки" }, "geometry": { "type": "Point", "coordinates": [ 30.119579, 50.414543 ] } },
{ "type": "Feature", "properties": { "element": "node", "id": 298902489, "name": "Личанка" }, "geometry": { "type": "Point", "coordinates": [ 30.0936886, 50.4052765 ] } },
{ "type": "Feature", "properties": { "element": "node", "id": 299199489, "name": "Червоне" }, "geometry": { "type": "Point", "coordinates": [ 29.944283, 50.015629 ] } },
{ "type": "Feature", "properties": { "element": "node", "id": 309666180, "name": "Волошинівка" }, "geometry": { "type": "Point", "coordinates": [ 31.3189318, 50.3214254 ] } },
{ "type": "Feature", "properties": { "element": "node", "id": 309666348, "name": "Селичівка" }, "geometry": { "type": "Point", "coordinates": [ 31.274904, 50.339378 ] } },
{ "type": "Feature", "properties": { "element": "node", "id": 312594903, "name": "Гоголів" }, "geometry": { "type": "Point", "coordinates": [ 31.0225659, 50.512656 ] } },
{ "type": "Feature", "properties": { "element": "node", "id": 312594903, "name": "Гоголів" }, "geometry": { "type": "Point", "coordinates": [ 31.0225659, 50.512656 ] } },
{ "type": "Feature", "properties": { "element": "node", "id": 312987923, "name": "Буча" }, "geometry": { "type": "Point", "coordinates": [ 30.2106925, 50.5503127 ] } },
{ "type": "Feature", "properties": { "element": "node", "id": 314795787, "name": "Требухів" }, "geometry": { "type": "Point", "coordinates": [ 30.9011179, 50.4832553 ] } },
{ "type": "Feature", "properties": { "element": "node", "id": 314795791, "name": "Русанів" }, "geometry": { "type": "Point", "coordinates": [ 31.1641955, 50.4965506 ] } },
{ "type": "Feature", "properties": { "element": "node", "id": 337507300, "name": "Славутич" }, "geometry": { "type": "Point", "coordinates": [ 30.7562301, 51.5201397 ] } },
{ "type": "Feature", "properties": { "element": "node", "id": 337510436, "name": "Нівецьке" }, "geometry": { "type": "Point", "coordinates": [ 29.786303, 51.239235 ] } },
{ "type": "Feature", "properties": { "element": "node", "id": 337510594, "name": "Луговики" }, "geometry": { "type": "Point", "coordinates": [ 29.468021, 51.222233 ] } },
{ "type": "Feature", "properties": { "element": "node", "id": 337510602, "name": "Федорівка" }, "geometry": { "type": "Point", "coordinates": [ 29.696032, 51.218613 ] } },
{ "type": "Feature", "properties": { "element": "node", "id": 337510628, "name": "Зірка" }, "geometry": { "type": "Point", "coordinates": [ 29.431175, 51.215008 ] } },
{ "type": "Feature", "properties": { "element": "node", "id": 337510677, "name": "Зелена Поляна" }, "geometry": { "type": "Point", "coordinates": [ 29.513714, 51.212368 ] } },
{ "type": "Feature", "properties": { "element": "node", "id": 337510753, "name": "Рагівка" }, "geometry": { "type": "Point", "coordinates": [ 29.410458, 51.200207 ] } },
{ "type": "Feature", "properties": { "element": "node", "id": 337510760, "name": "Черемошна" }, "geometry": { "type": "Point", "coordinates": [ 29.822071, 51.199722 ] } },
{ "type": "Feature", "properties": { "element": "node", "id": 337510765, "name": "Мар’янівка" }, "geometry": { "type": "Point", "coordinates": [ 29.49098, 51.198143 ] } },
{ "type": "Feature", "properties": { "element": "node", "id": 337510781, "name": "Радинка" }, "geometry": { "type": "Point", "coordinates": [ 29.714357, 51.19598 ] } },
{ "type": "Feature", "properties": { "element": "node", "id": 337510807, "name": "Максимовичі" }, "geometry": { "type": "Point", "coordinates": [ 29.614838, 51.196686 ] } },
{ "type": "Feature", "properties": { "element": "node", "id": 337510873, "name": "Млачівка" }, "geometry": { "type": "Point", "coordinates": [ 29.551638, 51.188774 ] } },
{ "type": "Feature", "properties": { "element": "node", "id": 337510891, "name": "Буда-Радинська" }, "geometry": { "type": "Point", "coordinates": [ 29.682148, 51.187778 ] } },
{ "type": "Feature", "properties": { "element": "node", "id": 337511009, "name": "Омелянівка" }, "geometry": { "type": "Point", "coordinates": [ 29.76256, 51.180523 ] } },
{ "type": "Feature", "properties": { "element": "node", "id": 337511188, "name": "Романівка" }, "geometry": { "type": "Point", "coordinates": [ 29.81175, 51.157841 ] } },
{ "type": "Feature", "properties": { "element": "node", "id": 337511250, "name": "Стещино" }, "geometry": { "type": "Point", "coordinates": [ 29.729349, 51.14994 ] } },
{ "type": "Feature", "properties": { "element": "node", "id": 337511325, "name": "Калинівка" }, "geometry": { "type": "Point", "coordinates": [ 29.801451, 51.13998 ] } },
{ "type": "Feature", "properties": { "element": "node", "id": 337511362, "name": "Буда Вовчківська" }, "geometry": { "type": "Point", "coordinates": [ 29.594389, 51.135311 ] } },
{ "type": "Feature", "properties": { "element": "node", "id": 337511388, "name": "Нові Соколи" }, "geometry": { "type": "Point", "coordinates": [ 29.872684, 51.1360025 ] } },
{ "type": "Feature", "properties": { "element": "node", "id": 337511464, "name": "Старі Соколи" }, "geometry": { "type": "Point", "coordinates": [ 29.9121619, 51.1280709 ] } },
{ "type": "Feature", "properties": { "element": "node", "id": 337511468, "name": "Дубова" }, "geometry": { "type": "Point", "coordinates": [ 29.662741, 51.127281 ] } },
{ "type": "Feature", "properties": { "element": "node", "id": 337511486, "name": "Потоки" }, "geometry": { "type": "Point", "coordinates": [ 29.9489803, 51.1243897 ] } },
{ "type": "Feature", "properties": { "element": "node", "id": 337511522, "name": "Шевченкове" }, "geometry": { "type": "Point", "coordinates": [ 29.8248961, 51.1242013 ] } },
{ "type": "Feature", "properties": { "element": "node", "id": 337511558, "name": "Шкнева" }, "geometry": { "type": "Point", "coordinates": [ 29.499319, 51.121101 ] } },
{ "type": "Feature", "properties": { "element": "node", "id": 337511578, "name": "Дитятки" }, "geometry": { "type": "Point", "coordinates": [ 30.1523568, 51.1080221 ] } },
{ "type": "Feature", "properties": { "element": "node", "id": 337511581, "name": "Стара Марківка" }, "geometry": { "type": "Point", "coordinates": [ 29.461559, 51.118011 ] } },
{ "type": "Feature", "properties": { "element": "node", "id": 337511596, "name": "Карпилівка" }, "geometry": { "type": "Point", "coordinates": [ 30.019419, 51.115803 ] } },
{ "type": "Feature", "properties": { "element": "node", "id": 337511616, "name": "Губин" }, "geometry": { "type": "Point", "coordinates": [ 30.28259, 51.114002 ] } },
{ "type": "Feature", "properties": { "element": "node", "id": 337511632, "name": "Красилівка" }, "geometry": { "type": "Point", "coordinates": [ 29.8683498, 51.1177776 ] } },
{ "type": "Feature", "properties": { "element": "node", "id": 337511643, "name": "Старий Міст" }, "geometry": { "type": "Point", "coordinates": [ 29.73896, 51.112518 ] } },
{ "type": "Feature", "properties": { "element": "node", "id": 337511691, "name": "Вовчків" }, "geometry": { "type": "Point", "coordinates": [ 29.55357, 51.108051 ] } },
{ "type": "Feature", "properties": { "element": "node", "id": 337511697, "name": "Городещина" }, "geometry": { "type": "Point", "coordinates": [ 29.671671, 51.107368 ] } },
{ "type": "Feature", "properties": { "element": "node", "id": 337511722, "name": "Димарка" }, "geometry": { "type": "Point", "coordinates": [ 29.770201, 51.105991 ] } },
{ "type": "Feature", "properties": { "element": "node", "id": 337511724, "name": "Ковалівка" }, "geometry": { "type": "Point", "coordinates": [ 29.9735315, 51.107134 ] } },
{ "type": "Feature", "properties": { "element": "node", "id": 337511817, "name": "Міхлівщина" }, "geometry": { "type": "Point", "coordinates": [ 29.64365, 51.098221 ] } },
{ "type": "Feature", "properties": { "element": "node", "id": 337511828, "name": "Рудня-Левківська" }, "geometry": { "type": "Point", "coordinates": [ 29.7571524, 51.0989114 ] } },
{ "type": "Feature", "properties": { "element": "node", "id": 337511955, "name": "Медвин" }, "geometry": { "type": "Point", "coordinates": [ 30.3369838, 51.0886577 ] } },
{ "type": "Feature", "properties": { "element": "node", "id": 337511993, "name": "Стовпне" }, "geometry": { "type": "Point", "coordinates": [ 29.5146628, 51.0771514 ] } },
{ "type": "Feature", "properties": { "element": "node", "id": 337512008, "name": "Доманівка" }, "geometry": { "type": "Point", "coordinates": [ 29.9771365, 51.0771759 ] } },
{ "type": "Feature", "properties": { "element": "node", "id": 337512030, "name": "Красятичі" }, "geometry": { "type": "Point", "coordinates": [ 29.6377868, 51.0782874 ] } },
{ "type": "Feature", "properties": { "element": "node", "id": 337512041, "name": "Левковичі" }, "geometry": { "type": "Point", "coordinates": [ 29.696051, 51.077148 ] } },
{ "type": "Feature", "properties": { "element": "node", "id": 337512044, "name": "Нові Макалевичі" }, "geometry": { "type": "Point", "coordinates": [ 29.9117436, 51.0762832 ] } },
{ "type": "Feature", "properties": { "element": "node", "id": 337512100, "name": "Поталіївка" }, "geometry": { "type": "Point", "coordinates": [ 29.808475, 51.071243 ] } },
{ "type": "Feature", "properties": { "element": "node", "id": 337512106, "name": "Страхолісся" }, "geometry": { "type": "Point", "coordinates": [ 30.395007, 51.0754937 ] } },
{ "type": "Feature", "properties": { "element": "node", "id": 337512107, "name": "Вересня" }, "geometry": { "type": "Point", "coordinates": [ 29.5903, 51.07304 ] } },
{ "type": "Feature", "properties": { "element": "node", "id": 337512124, "name": "Горностайпіль" }, "geometry": { "type": "Point", "coordinates": [ 30.261841, 51.071659 ] } },
{ "type": "Feature", "properties": { "element": "node", "id": 337512175, "name": "Степанівка" }, "geometry": { "type": "Point", "coordinates": [ 30.04109, 51.06892 ] } },
{ "type": "Feature", "properties": { "element": "node", "id": 337512231, "name": "Зорин" }, "geometry": { "type": "Point", "coordinates": [ 30.201071, 51.06171 ] } },
{ "type": "Feature", "properties": { "element": "node", "id": 337512325, "name": "Мусійки" }, "geometry": { "type": "Point", "coordinates": [ 29.752689, 51.05381 ] } },
{ "type": "Feature", "properties": { "element": "node", "id": 337512338, "name": "Лапутьки" }, "geometry": { "type": "Point", "coordinates": [ 30.26012, 51.052441 ] } },
{ "type": "Feature", "properties": { "element": "node", "id": 337512340, "name": "Оране" }, "geometry": { "type": "Point", "coordinates": [ 30.124346, 51.049252 ] } },
{ "type": "Feature", "properties": { "element": "node", "id": 337512384, "name": "Фрузинівка" }, "geometry": { "type": "Point", "coordinates": [ 30.1823573, 51.0442604 ] } },
{ "type": "Feature", "properties": { "element": "node", "id": 337512420, "name": "Лісове" }, "geometry": { "type": "Point", "coordinates": [ 29.646069, 51.041523 ] } },
{ "type": "Feature", "properties": { "element": "node", "id": 337512450, "name": "Хочева" }, "geometry": { "type": "Point", "coordinates": [ 30.0877926, 51.0383682 ] } },
{ "type": "Feature", "properties": { "element": "node", "id": 337512462, "name": "Залишани" }, "geometry": { "type": "Point", "coordinates": [ 29.577536, 51.040337 ] } },
{ "type": "Feature", "properties": { "element": "node", "id": 337512519, "name": "Пилява" }, "geometry": { "type": "Point", "coordinates": [ 30.30991, 51.03355 ] } },
{ "type": "Feature", "properties": { "element": "node", "id": 337512536, "name": "Богдани" }, "geometry": { "type": "Point", "coordinates": [ 30.2523586, 51.0302873 ] } },
{ "type": "Feature", "properties": { "element": "node", "id": 337512563, "name": "Мала Макарівка" }, "geometry": { "type": "Point", "coordinates": [ 29.913607, 51.031963 ] } },
{ "type": "Feature", "properties": { "element": "node", "id": 337512608, "name": "Русаки" }, "geometry": { "type": "Point", "coordinates": [ 29.9517732, 51.017931 ] } },
{ "type": "Feature", "properties": { "element": "node", "id": 337512622, "name": "Ритні" }, "geometry": { "type": "Point", "coordinates": [ 30.2030702, 51.0246286 ] } },
{ "type": "Feature", "properties": { "element": "node", "id": 337512641, "name": "Макарівка" }, "geometry": { "type": "Point", "coordinates": [ 29.8621446, 51.0140098 ] } },
{ "type": "Feature", "properties": { "element": "node", "id": 337512681, "name": "Верхолісся" }, "geometry": { "type": "Point", "coordinates": [ 29.4912121, 51.0195859 ] } },
{ "type": "Feature", "properties": { "element": "node", "id": 337512702, "name": "Буда-Полідарівська" }, "geometry": { "type": "Point", "coordinates": [ 29.5637346, 51.0188562 ] } },
{ "type": "Feature", "properties": { "element": "node", "id": 337512724, "name": "Прибірськ" }, "geometry": { "type": "Point", "coordinates": [ 30.0377051, 51.013591 ] } },
{ "type": "Feature", "properties": { "element": "node", "id": 337512736, "name": "Термахівка" }, "geometry": { "type": "Point", "coordinates": [ 29.695599, 51.015533 ] } },
{ "type": "Feature", "properties": { "element": "node", "id": 337512749, "name": "Полідарівка" }, "geometry": { "type": "Point", "coordinates": [ 29.6212866, 51.014625 ] } },
{ "type": "Feature", "properties": { "element": "node", "id": 337512775, "name": "Жміївка" }, "geometry": { "type": "Point", "coordinates": [ 29.5166628, 51.0146145 ] } },
{ "type": "Feature", "properties": { "element": "node", "id": 337512916, "name": "Любидва" }, "geometry": { "type": "Point", "coordinates": [ 30.078159, 50.996132 ] } },
{ "type": "Feature", "properties": { "element": "node", "id": 337512943, "name": "Обуховичі" }, "geometry": { "type": "Point", "coordinates": [ 29.7738488, 50.9885425 ] } },
{ "type": "Feature", "properties": { "element": "node", "id": 337512994, "name": "Федорівка" }, "geometry": { "type": "Point", "coordinates": [ 29.91371, 50.988579 ] } },
{ "type": "Feature", "properties": { "element": "node", "id": 337513049, "name": "Пироговичі" }, "geometry": { "type": "Point", "coordinates": [ 29.972759, 50.985142 ] } },
{ "type": "Feature", "properties": { "element": "node", "id": 337513051, "name": "Вишова" }, "geometry": { "type": "Point", "coordinates": [ 29.666695, 50.9806031 ] } },
{ "type": "Feature", "properties": { "element": "node", "id": 337513134, "name": "Сидоровичі" }, "geometry": { "type": "Point", "coordinates": [ 29.5861886, 50.9860203 ] } },
{ "type": "Feature", "properties": { "element": "node", "id": 337513139, "name": "Рахвалівка" }, "geometry": { "type": "Point", "coordinates": [ 29.4299657, 50.981143 ] } },
{ "type": "Feature", "properties": { "element": "node", "id": 337513183, "name": "Овдієва Нива" }, "geometry": { "type": "Point", "coordinates": [ 30.2338232, 50.9718413 ] } },
{ "type": "Feature", "properties": { "element": "node", "id": 337513193, "name": "Рихта" }, "geometry": { "type": "Point", "coordinates": [ 30.156019, 50.976929 ] } },
{ "type": "Feature", "properties": { "element": "node", "id": 337513219, "name": "Олізарівка" }, "geometry": { "type": "Point", "coordinates": [ 29.5237265, 50.9742941 ] } },
{ "type": "Feature", "properties": { "element": "node", "id": 337513227, "name": "Воропаївка" }, "geometry": { "type": "Point", "coordinates": [ 30.0098401, 50.9748013 ] } },
{ "type": "Feature", "properties": { "element": "node", "id": 337513419, "name": "Варівськ" }, "geometry": { "type": "Point", "coordinates": [ 29.4774572, 50.9566336 ] } },
{ "type": "Feature", "properties": { "element": "node", "id": 337513424, "name": "Сукачі" }, "geometry": { "type": "Point", "coordinates": [ 29.934484, 50.9626469 ] } },
{ "type": "Feature", "properties": { "element": "node", "id": 337513426, "name": "Болотня" }, "geometry": { "type": "Point", "coordinates": [ 29.8778591, 50.9643835 ] } },
{ "type": "Feature", "properties": { "element": "node", "id": 337513498, "name": "Станішівка" }, "geometry": { "type": "Point", "coordinates": [ 29.750629, 50.955959 ] } },
{ "type": "Feature", "properties": { "element": "node", "id": 337513554, "name": "Шевченкове" }, "geometry": { "type": "Point", "coordinates": [ 29.67201, 50.95253 ] } },
{ "type": "Feature", "properties": { "element": "node", "id": 337513581, "name": "Людвинівка" }, "geometry": { "type": "Point", "coordinates": [ 29.4541049, 50.9512167 ] } },
{ "type": "Feature", "properties": { "element": "node", "id": 337513594, "name": "Сичівка" }, "geometry": { "type": "Point", "coordinates": [ 30.309219, 50.94841 ] } },
{ "type": "Feature", "properties": { "element": "node", "id": 337513605, "name": "Рудня-Сидорівська" }, "geometry": { "type": "Point", "coordinates": [ 29.571251, 50.949764 ] } },
{ "type": "Feature", "properties": { "element": "node", "id": 337513620, "name": "Білий Берег" }, "geometry": { "type": "Point", "coordinates": [ 29.9726776, 50.9446325 ] } },
{ "type": "Feature", "properties": { "element": "node", "id": 337513694, "name": "Вахівка" }, "geometry": { "type": "Point", "coordinates": [ 30.094641, 50.940861 ] } },
{ "type": "Feature", "properties": { "element": "node", "id": 337513784, "name": "Сухолуччя" }, "geometry": { "type": "Point", "coordinates": [ 30.438637, 50.942936 ] } },
{ "type": "Feature", "properties": { "element": "node", "id": 337513819, "name": "Іванків" }, "geometry": { "type": "Point", "coordinates": [ 29.9042867, 50.93301 ] } },
{ "type": "Feature", "properties": { "element": "node", "id": 337513885, "name": "Рокитна Слобода" }, "geometry": { "type": "Point", "coordinates": [ 29.9619947, 50.9308447 ] } },
{ "type": "Feature", "properties": { "element": "node", "id": 337513959, "name": "Розважів" }, "geometry": { "type": "Point", "coordinates": [ 29.64489, 50.923691 ] } },
{ "type": "Feature", "properties": { "element": "node", "id": 337513961, "name": "Кропивня" }, "geometry": { "type": "Point", "coordinates": [ 29.516491, 50.923691 ] } },
{ "type": "Feature", "properties": { "element": "node", "id": 337513970, "name": "Ставрівка" }, "geometry": { "type": "Point", "coordinates": [ 29.71699, 50.923351 ] } },
{ "type": "Feature", "properties": { "element": "node", "id": 337513976, "name": "Мокра Корма" }, "geometry": { "type": "Point", "coordinates": [ 29.569796, 50.920925 ] } },
{ "type": "Feature", "properties": { "element": "node", "id": 337514015, "name": "Любимівка" }, "geometry": { "type": "Point", "coordinates": [ 30.2567727, 50.9202725 ] } },
{ "type": "Feature", "properties": { "element": "node", "id": 337514029, "name": "Дмитрівка" }, "geometry": { "type": "Point", "coordinates": [ 30.3453559, 50.9131954 ] } },
{ "type": "Feature", "properties": { "element": "node", "id": 337514063, "name": "Жеревпілля" }, "geometry": { "type": "Point", "coordinates": [ 29.648319, 50.915791 ] } },
{ "type": "Feature", "properties": { "element": "node", "id": 337514072, "name": "Шпилі" }, "geometry": { "type": "Point", "coordinates": [ 29.95182, 50.915112 ] } },
{ "type": "Feature", "properties": { "element": "node", "id": 337514078, "name": "Запрудка" }, "geometry": { "type": "Point", "coordinates": [ 29.844961, 50.9165467 ] } },
{ "type": "Feature", "properties": { "element": "node", "id": 337514195, "name": "Андріївка" }, "geometry": { "type": "Point", "coordinates": [ 30.2229635, 50.9091988 ] } },
{ "type": "Feature", "properties": { "element": "node", "id": 337514338, "name": "Старовичі" }, "geometry": { "type": "Point", "coordinates": [ 29.6109882, 50.8984584 ] } },
{ "type": "Feature", "properties": { "element": "node", "id": 337514363, "name": "Захарівка" }, "geometry": { "type": "Point", "coordinates": [ 29.50104, 50.896568 ] } },
{ "type": "Feature", "properties": { "element": "node", "id": 337514389, "name": "Толокунь" }, "geometry": { "type": "Point", "coordinates": [ 30.4366603, 50.8891449 ] } },
{ "type": "Feature", "properties": { "element": "node", "id": 337514484, "name": "Жерева" }, "geometry": { "type": "Point", "coordinates": [ 29.717331, 50.889011 ] } },
{ "type": "Feature", "properties": { "element": "node", "id": 337514494, "name": "Рудня-Шпилівська" }, "geometry": { "type": "Point", "coordinates": [ 29.985809, 50.888329 ] } },
{ "type": "Feature", "properties": { "element": "node", "id": 337514520, "name": "Володимирівка" }, "geometry": { "type": "Point", "coordinates": [ 30.1238095, 50.8862696 ] } },
{ "type": "Feature", "properties": { "element": "node", "id": 337514557, "name": "Федорівка" }, "geometry": { "type": "Point", "coordinates": [ 30.267679, 50.882832 ] } },
{ "type": "Feature", "properties": { "element": "node", "id": 337514584, "name": "Олива" }, "geometry": { "type": "Point", "coordinates": [ 29.547577, 50.88176 ] } },
{ "type": "Feature", "properties": { "element": "node", "id": 337514665, "name": "Рови" }, "geometry": { "type": "Point", "coordinates": [ 30.3135688, 50.8761569 ] } },
{ "type": "Feature", "properties": { "element": "node", "id": 337514673, "name": "Коленцівське" }, "geometry": { "type": "Point", "coordinates": [ 29.8380086, 50.8731928 ] } },
{ "type": "Feature", "properties": { "element": "node", "id": 337514706, "name": "Коленці" }, "geometry": { "type": "Point", "coordinates": [ 29.8717815, 50.8744353 ] } },
{ "type": "Feature", "properties": { "element": "node", "id": 337514726, "name": "Рудня-Димерська" }, "geometry": { "type": "Point", "coordinates": [ 30.102524, 50.870796 ] } },
{ "type": "Feature", "properties": { "element": "node", "id": 337514798, "name": "Розтісне" }, "geometry": { "type": "Point", "coordinates": [ 30.28931, 50.864979 ] } },
{ "type": "Feature", "properties": { "element": "node", "id": 337514864, "name": "Осовець" }, "geometry": { "type": "Point", "coordinates": [ 29.55872, 50.860859 ] } },
{ "type": "Feature", "properties": { "element": "node", "id": 337514897, "name": "Сувид" }, "geometry": { "type": "Point", "coordinates": [ 30.758631, 50.857769 ] } },
{ "type": "Feature", "properties": { "element": "node", "id": 337514908, "name": "Ясногородка" }, "geometry": { "type": "Point", "coordinates": [ 30.398479, 50.8476615 ] } },
{ "type": "Feature", "properties": { "element": "node", "id": 337514955, "name": "Круги" }, "geometry": { "type": "Point", "coordinates": [ 30.3104537, 50.8526405 ] } },
{ "type": "Feature", "properties": { "element": "node", "id": 337514958, "name": "Рудня-Тальська" }, "geometry": { "type": "Point", "coordinates": [ 29.982719, 50.85434 ] } },
{ "type": "Feature", "properties": { "element": "node", "id": 337514961, "name": "Ровжі" }, "geometry": { "type": "Point", "coordinates": [ 30.60173, 50.852619 ] } },
{ "type": "Feature", "properties": { "element": "node", "id": 337515027, "name": "Тетерівське" }, "geometry": { "type": "Point", "coordinates": [ 29.7291794, 50.856776 ] } },
{ "type": "Feature", "properties": { "element": "node", "id": 337515043, "name": "Зимовище" }, "geometry": { "type": "Point", "coordinates": [ 29.95903, 50.84816 ] } },
{ "type": "Feature", "properties": { "element": "node", "id": 337515095, "name": "Слобода-Кухарська" }, "geometry": { "type": "Point", "coordinates": [ 29.5486774, 50.83866 ] } },
{ "type": "Feature", "properties": { "element": "node", "id": 337515177, "name": "Підгайне" }, "geometry": { "type": "Point", "coordinates": [ 29.66103, 50.839581 ] } },
{ "type": "Feature", "properties": { "element": "node", "id": 337515240, "name": "Блідча" }, "geometry": { "type": "Point", "coordinates": [ 29.799934, 50.835838 ] } },
{ "type": "Feature", "properties": { "element": "node", "id": 337515354, "name": "Гута-Катюжанська" }, "geometry": { "type": "Point", "coordinates": [ 30.114559, 50.832371 ] } },
{ "type": "Feature", "properties": { "element": "node", "id": 337515369, "name": "Калинове" }, "geometry": { "type": "Point", "coordinates": [ 29.526791, 50.83168 ] } },
{ "type": "Feature", "properties": { "element": "node", "id": 337515376, "name": "Феневичі" }, "geometry": { "type": "Point", "coordinates": [ 30.0796258, 50.8414232 ] } },
{ "type": "Feature", "properties": { "element": "node", "id": 337515406, "name": "Боденьки" }, "geometry": { "type": "Point", "coordinates": [ 30.72773, 50.830311 ] } },
{ "type": "Feature", "properties": { "element": "node", "id": 337515665, "name": "Глібівка" }, "geometry": { "type": "Point", "coordinates": [ 30.3679237, 50.7958902 ] } },
{ "type": "Feature", "properties": { "element": "node", "id": 337515710, "name": "Кухарі" }, "geometry": { "type": "Point", "coordinates": [ 29.5899171, 50.8183855 ] } },
{ "type": "Feature", "properties": { "element": "node", "id": 337515745, "name": "Яхнівка" }, "geometry": { "type": "Point", "coordinates": [ 29.634796, 50.814159 ] } },
{ "type": "Feature", "properties": { "element": "node", "id": 337515779, "name": "Леонівка" }, "geometry": { "type": "Point", "coordinates": [ 29.91337, 50.81245 ] } },
{ "type": "Feature", "properties": { "element": "node", "id": 337515821, "name": "Катюжанка" }, "geometry": { "type": "Point", "coordinates": [ 30.1337933, 50.8034272 ] } },
{ "type": "Feature", "properties": { "element": "node", "id": 337515871, "name": "Жукин" }, "geometry": { "type": "Point", "coordinates": [ 30.698549, 50.808331 ] } },
{ "type": "Feature", "properties": { "element": "node", "id": 337516116, "name": "Соснівка" }, "geometry": { "type": "Point", "coordinates": [ 30.0226751, 50.7948867 ] } },
{ "type": "Feature", "properties": { "element": "node", "id": 337516240, "name": "Заруддя" }, "geometry": { "type": "Point", "coordinates": [ 29.5262679, 50.7835779 ] } },
{ "type": "Feature", "properties": { "element": "node", "id": 337516315, "name": "Коблиця" }, "geometry": { "type": "Point", "coordinates": [ 29.889141, 50.7784 ] } },
{ "type": "Feature", "properties": { "element": "node", "id": 337516394, "name": "Дудки" }, "geometry": { "type": "Point", "coordinates": [ 30.089951, 50.775589 ] } },
{ "type": "Feature", "properties": { "element": "node", "id": 337516436, "name": "Коблицький Ліс" }, "geometry": { "type": "Point", "coordinates": [ 29.91234, 50.771252 ] } },
{ "type": "Feature", "properties": { "element": "node", "id": 337516450, "name": "Тальське" }, "geometry": { "type": "Point", "coordinates": [ 29.8423, 50.770222 ] } },
{ "type": "Feature", "properties": { "element": "node", "id": 337516474, "name": "Воропаїв" }, "geometry": { "type": "Point", "coordinates": [ 30.658237, 50.769169 ] } },
{ "type": "Feature", "properties": { "element": "node", "id": 337516490, "name": "Опанасів" }, "geometry": { "type": "Point", "coordinates": [ 31.0944545, 50.7673844 ] } },
{ "type": "Feature", "properties": { "element": "node", "id": 337516516, "name": "Красний Ріг" }, "geometry": { "type": "Point", "coordinates": [ 30.03525, 50.765072 ] } },
{ "type": "Feature", "properties": { "element": "node", "id": 337516526, "name": "Рикунь" }, "geometry": { "type": "Point", "coordinates": [ 30.2568221, 50.7626924 ] } },
{ "type": "Feature", "properties": { "element": "node", "id": 337516558, "name": "Козаровичі" }, "geometry": { "type": "Point", "coordinates": [ 30.351896, 50.756054 ] } },
{ "type": "Feature", "properties": { "element": "node", "id": 337516639, "name": "Літочки" }, "geometry": { "type": "Point", "coordinates": [ 30.7660357, 50.756659 ] } },
{ "type": "Feature", "properties": { "element": "node", "id": 337516639, "name": "Літочки" }, "geometry": { "type": "Point", "coordinates": [ 30.7660357, 50.756659 ] } },
{ "type": "Feature", "properties": { "element": "node", "id": 337516645, "name": "Раска" }, "geometry": { "type": "Point", "coordinates": [ 29.5976884, 50.7610101 ] } },
{ "type": "Feature", "properties": { "element": "node", "id": 337516662, "name": "Пірнове" }, "geometry": { "type": "Point", "coordinates": [ 30.668587, 50.752785 ] } },
{ "type": "Feature", "properties": { "element": "node", "id": 337516669, "name": "Лісовичі" }, "geometry": { "type": "Point", "coordinates": [ 30.1939525, 50.7494366 ] } },
{ "type": "Feature", "properties": { "element": "node", "id": 337516703, "name": "Мирча" }, "geometry": { "type": "Point", "coordinates": [ 29.83337, 50.749969 ] } },
{ "type": "Feature", "properties": { "element": "node", "id": 337516738, "name": "Калита" }, "geometry": { "type": "Point", "coordinates": [ 31.0249121, 50.7498578 ] } },
{ "type": "Feature", "properties": { "element": "node", "id": 337516738, "name": "Калита" }, "geometry": { "type": "Point", "coordinates": [ 31.0249121, 50.7498578 ] } },
{ "type": "Feature", "properties": { "element": "node", "id": 337516757, "name": "Абрамівка" }, "geometry": { "type": "Point", "coordinates": [ 30.094299, 50.745159 ] } },
{ "type": "Feature", "properties": { "element": "node", "id": 337516776, "name": "Великий Ліс" }, "geometry": { "type": "Point", "coordinates": [ 29.920668, 50.74371 ] } },
{ "type": "Feature", "properties": { "element": "node", "id": 337517011, "name": "Миколаївка" }, "geometry": { "type": "Point", "coordinates": [ 30.205618, 50.734219 ] } },
{ "type": "Feature", "properties": { "element": "node", "id": 337517038, "name": "Соболівка" }, "geometry": { "type": "Point", "coordinates": [ 30.7500889, 50.7384652 ] } },
{ "type": "Feature", "properties": { "element": "node", "id": 337517062, "name": "Вища Дубечня" }, "geometry": { "type": "Point", "coordinates": [ 30.65151, 50.73418 ] } },
{ "type": "Feature", "properties": { "element": "node", "id": 337517147, "name": "Литвинівка" }, "geometry": { "type": "Point", "coordinates": [ 30.241123, 50.730083 ] } },
{ "type": "Feature", "properties": { "element": "node", "id": 337517206, "name": "Шибене" }, "geometry": { "type": "Point", "coordinates": [ 30.02323, 50.72731 ] } },
{ "type": "Feature", "properties": { "element": "node", "id": 337517299, "name": "Семиполки" }, "geometry": { "type": "Point", "coordinates": [ 30.946077, 50.723526 ] } },
{ "type": "Feature", "properties": { "element": "node", "id": 337517341, "name": "Демидів" }, "geometry": { "type": "Point", "coordinates": [ 30.330633, 50.727741 ] } },
{ "type": "Feature", "properties": { "element": "node", "id": 337517358, "name": "Михайленків" }, "geometry": { "type": "Point", "coordinates": [ 29.950151, 50.72501 ] } },
{ "type": "Feature", "properties": { "element": "node", "id": 337517422, "name": "Савенки" }, "geometry": { "type": "Point", "coordinates": [ 30.079189, 50.71529 ] } },
{ "type": "Feature", "properties": { "element": "node", "id": 337517434, "name": "Стара Буда" }, "geometry": { "type": "Point", "coordinates": [ 29.847477, 50.716297 ] } },
{ "type": "Feature", "properties": { "element": "node", "id": 337517441, "name": "Лебедівка" }, "geometry": { "type": "Point", "coordinates": [ 30.544632, 50.713654 ] } },
{ "type": "Feature", "properties": { "element": "node", "id": 337517490, "name": "Тарасівщина" }, "geometry": { "type": "Point", "coordinates": [ 30.2094341, 50.7112489 ] } },
{ "type": "Feature", "properties": { "element": "node", "id": 337517593, "name": "Літки" }, "geometry": { "type": "Point", "coordinates": [ 30.7429533, 50.7069393 ] } },
{ "type": "Feature", "properties": { "element": "node", "id": 337517677, "name": "Пісківка" }, "geometry": { "type": "Point", "coordinates": [ 29.5931036, 50.6968561 ] } },
{ "type": "Feature", "properties": { "element": "node", "id": 337517688, "name": "Торф’яне" }, "geometry": { "type": "Point", "coordinates": [ 29.8035018, 50.6917845 ] } },
{ "type": "Feature", "properties": { "element": "node", "id": 337517704, "name": "Заворичі" }, "geometry": { "type": "Point", "coordinates": [ 31.13457, 50.69916 ] } },
{ "type": "Feature", "properties": { "element": "node", "id": 337517716, "name": "Качали" }, "geometry": { "type": "Point", "coordinates": [ 29.8401562, 50.6939185 ] } },
{ "type": "Feature", "properties": { "element": "node", "id": 337517762, "name": "Поташня" }, "geometry": { "type": "Point", "coordinates": [ 29.7528606, 50.6967193 ] } },
{ "type": "Feature", "properties": { "element": "node", "id": 337517773, "name": "Бондарня" }, "geometry": { "type": "Point", "coordinates": [ 29.7689578, 50.6937024 ] } },
{ "type": "Feature", "properties": { "element": "node", "id": 337517785, "name": "Небрат" }, "geometry": { "type": "Point", "coordinates": [ 29.953573, 50.692795 ] } },
{ "type": "Feature", "properties": { "element": "node", "id": 337517868, "name": "Мокрець" }, "geometry": { "type": "Point", "coordinates": [ 31.15688, 50.68577 ] } },
{ "type": "Feature", "properties": { "element": "node", "id": 337517932, "name": "Лютіж" }, "geometry": { "type": "Point", "coordinates": [ 30.394852, 50.684196 ] } },
{ "type": "Feature", "properties": { "element": "node", "id": 337517995, "name": "Нижча Дубечня" }, "geometry": { "type": "Point", "coordinates": [ 30.6273995, 50.6799313 ] } },
{ "type": "Feature", "properties": { "element": "node", "id": 337517997, "name": "Нова Буда" }, "geometry": { "type": "Point", "coordinates": [ 29.75778, 50.666824 ] } },
{ "type": "Feature", "properties": { "element": "node", "id": 337518006, "name": "Синяк" }, "geometry": { "type": "Point", "coordinates": [ 30.2671621, 50.6824548 ] } },
{ "type": "Feature", "properties": { "element": "node", "id": 337518044, "name": "Галинка" }, "geometry": { "type": "Point", "coordinates": [ 29.831529, 50.6773349 ] } },
{ "type": "Feature", "properties": { "element": "node", "id": 337518053, "name": "Гаврилівка" }, "geometry": { "type": "Point", "coordinates": [ 30.206909, 50.674782 ] } },
{ "type": "Feature", "properties": { "element": "node", "id": 337518075, "name": "Здвижівка" }, "geometry": { "type": "Point", "coordinates": [ 30.06958, 50.673409 ] } },
{ "type": "Feature", "properties": { "element": "node", "id": 337518100, "name": "Мигалки" }, "geometry": { "type": "Point", "coordinates": [ 29.5536048, 50.6727622 ] } },
{ "type": "Feature", "properties": { "element": "node", "id": 337518131, "name": "Червоне" }, "geometry": { "type": "Point", "coordinates": [ 30.2726595, 50.6657821 ] } },
{ "type": "Feature", "properties": { "element": "node", "id": 337518148, "name": "Рожни" }, "geometry": { "type": "Point", "coordinates": [ 30.7409737, 50.6706878 ] } },
{ "type": "Feature", "properties": { "element": "node", "id": 337518201, "name": "Гайове" }, "geometry": { "type": "Point", "coordinates": [ 31.0540831, 50.6631916 ] } },
{ "type": "Feature", "properties": { "element": "node", "id": 337518206, "name": "Волиця" }, "geometry": { "type": "Point", "coordinates": [ 29.8620588, 50.6632993 ] } },
{ "type": "Feature", "properties": { "element": "node", "id": 337518211, "name": "Загальці" }, "geometry": { "type": "Point", "coordinates": [ 29.80488, 50.662418 ] } },
{ "type": "Feature", "properties": { "element": "node", "id": 337518229, "name": "Вороньківка" }, "geometry": { "type": "Point", "coordinates": [ 30.2169099, 50.6585461 ] } },
{ "type": "Feature", "properties": { "element": "node", "id": 337518301, "name": "Раківка" }, "geometry": { "type": "Point", "coordinates": [ 30.255659, 50.655209 ] } },
{ "type": "Feature", "properties": { "element": "node", "id": 337518329, "name": "Бобрик" }, "geometry": { "type": "Point", "coordinates": [ 31.08101, 50.65246 ] } },
{ "type": "Feature", "properties": { "element": "node", "id": 337518333, "name": "Рудня" }, "geometry": { "type": "Point", "coordinates": [ 31.00514, 50.65212 ] } },
{ "type": "Feature", "properties": { "element": "node", "id": 337518350, "name": "Шевченкове" }, "geometry": { "type": "Point", "coordinates": [ 31.0395948, 50.6462737 ] } },
{ "type": "Feature", "properties": { "element": "node", "id": 337518350, "name": "Шевченкове" }, "geometry": { "type": "Point", "coordinates": [ 31.0395948, 50.6462737 ] } },
{ "type": "Feature", "properties": { "element": "node", "id": 337518381, "name": "Старі Петрівці" }, "geometry": { "type": "Point", "coordinates": [ 30.4079932, 50.6523072 ] } },
{ "type": "Feature", "properties": { "element": "node", "id": 337518407, "name": "Гай" }, "geometry": { "type": "Point", "coordinates": [ 29.843796, 50.650097 ] } },
{ "type": "Feature", "properties": { "element": "node", "id": 337518472, "name": "Луб’янка" }, "geometry": { "type": "Point", "coordinates": [ 30.1753231, 50.6533393 ] } },
{ "type": "Feature", "properties": { "element": "node", "id": 337518531, "name": "Бервиця" }, "geometry": { "type": "Point", "coordinates": [ 31.19053, 50.63736 ] } },
{ "type": "Feature", "properties": { "element": "node", "id": 337518601, "name": "Залісся" }, "geometry": { "type": "Point", "coordinates": [ 30.8753525, 50.6318646 ] } },
{ "type": "Feature", "properties": { "element": "node", "id": 337518622, "name": "Вишняки" }, "geometry": { "type": "Point", "coordinates": [ 29.744801, 50.630489 ] } },
{ "type": "Feature", "properties": { "element": "node", "id": 337518662, "name": "Нові Петрівці" }, "geometry": { "type": "Point", "coordinates": [ 30.444609, 50.6219956 ] } },
{ "type": "Feature", "properties": { "element": "node", "id": 337518662, "name": "Нові Петрівці" }, "geometry": { "type": "Point", "coordinates": [ 30.444609, 50.6219956 ] } },
{ "type": "Feature", "properties": { "element": "node", "id": 337518687, "name": "Дружня" }, "geometry": { "type": "Point", "coordinates": [ 29.8690801, 50.6241609 ] } },
{ "type": "Feature", "properties": { "element": "node", "id": 337518715, "name": "Богданівка" }, "geometry": { "type": "Point", "coordinates": [ 30.9138046, 50.6249989 ] } },
{ "type": "Feature", "properties": { "element": "node", "id": 337518720, "name": "Озера" }, "geometry": { "type": "Point", "coordinates": [ 30.20966, 50.62466 ] } },
{ "type": "Feature", "properties": { "element": "node", "id": 337518749, "name": "Тарас" }, "geometry": { "type": "Point", "coordinates": [ 31.0064208, 50.6222185 ] } },
{ "type": "Feature", "properties": { "element": "node", "id": 337518749, "name": "Тарас" }, "geometry": { "type": "Point", "coordinates": [ 31.0064208, 50.6222185 ] } },
{ "type": "Feature", "properties": { "element": "node", "id": 337518810, "name": "Майданівка" }, "geometry": { "type": "Point", "coordinates": [ 29.7153195, 50.6250278 ] } },
{ "type": "Feature", "properties": { "element": "node", "id": 337518821, "name": "Новосілки" }, "geometry": { "type": "Point", "coordinates": [ 30.6277842, 50.6204853 ] } },
{ "type": "Feature", "properties": { "element": "node", "id": 337518836, "name": "Михайлівка" }, "geometry": { "type": "Point", "coordinates": [ 31.0692725, 50.6194693 ] } },
{ "type": "Feature", "properties": { "element": "node", "id": 337518882, "name": "Буда-Бабинецька" }, "geometry": { "type": "Point", "coordinates": [ 30.060976, 50.621601 ] } },
{ "type": "Feature", "properties": { "element": "node", "id": 337518886, "name": "Язвинка" }, "geometry": { "type": "Point", "coordinates": [ 29.6703, 50.61264 ] } },
{ "type": "Feature", "properties": { "element": "node", "id": 337518905, "name": "Вільне" }, "geometry": { "type": "Point", "coordinates": [ 31.003978, 50.6084509 ] } },
{ "type": "Feature", "properties": { "element": "node", "id": 337518934, "name": "Пилиповичі" }, "geometry": { "type": "Point", "coordinates": [ 29.95525, 50.60955 ] } },
{ "type": "Feature", "properties": { "element": "node", "id": 337518949, "name": "Соболівка" }, "geometry": { "type": "Point", "coordinates": [ 29.609871, 50.60886 ] } },
{ "type": "Feature", "properties": { "element": "node", "id": 337519002, "name": "Олексіївка" }, "geometry": { "type": "Point", "coordinates": [ 31.813366, 50.6036901 ] } },
{ "type": "Feature", "properties": { "element": "node", "id": 337519015, "name": "Макарівська Буда" }, "geometry": { "type": "Point", "coordinates": [ 29.63562, 50.60577 ] } },
{ "type": "Feature", "properties": { "element": "node", "id": 337519030, "name": "Захарівка" }, "geometry": { "type": "Point", "coordinates": [ 31.0184985, 50.6034871 ] } },
{ "type": "Feature", "properties": { "element": "node", "id": 337519030, "name": "Захарівка" }, "geometry": { "type": "Point", "coordinates": [ 31.0184985, 50.6034871 ] } },
{ "type": "Feature", "properties": { "element": "node", "id": 337519099, "name": "Рожівка" }, "geometry": { "type": "Point", "coordinates": [ 30.7565263, 50.6020894 ] } },
{ "type": "Feature", "properties": { "element": "node", "id": 337519128, "name": "Мощун" }, "geometry": { "type": "Point", "coordinates": [ 30.3081105, 50.6046106 ] } },
{ "type": "Feature", "properties": { "element": "node", "id": 337519132, "name": "Блиставиця" }, "geometry": { "type": "Point", "coordinates": [ 30.175671, 50.59959 ] } },
{ "type": "Feature", "properties": { "element": "node", "id": 337519136, "name": "Гребельки" }, "geometry": { "type": "Point", "coordinates": [ 31.1037096, 50.6008168 ] } },
{ "type": "Feature", "properties": { "element": "node", "id": 337519154, "name": "Дмитрівка" }, "geometry": { "type": "Point", "coordinates": [ 29.7847058, 50.6052627 ] } },
{ "type": "Feature", "properties": { "element": "node", "id": 337519169, "name": "Хотянівка" }, "geometry": { "type": "Point", "coordinates": [ 30.5667921, 50.5958871 ] } },
{ "type": "Feature", "properties": { "element": "node", "id": 337519172, "name": "Жердова" }, "geometry": { "type": "Point", "coordinates": [ 31.0417165, 50.5999465 ] } },
{ "type": "Feature", "properties": { "element": "node", "id": 337519175, "name": "Новий Корогод" }, "geometry": { "type": "Point", "coordinates": [ 29.7941711, 50.591788 ] } },
{ "type": "Feature", "properties": { "element": "node", "id": 337519221, "name": "Вабля" }, "geometry": { "type": "Point", "coordinates": [ 29.86565, 50.593487 ] } },
{ "type": "Feature", "properties": { "element": "node", "id": 337519243, "name": "Кодра" }, "geometry": { "type": "Point", "coordinates": [ 29.56284, 50.591351 ] } },
{ "type": "Feature", "properties": { "element": "node", "id": 337519261, "name": "Велика Димерка" }, "geometry": { "type": "Point", "coordinates": [ 30.9016229, 50.5913563 ] } },
{ "type": "Feature", "properties": { "element": "node", "id": 337519271, "name": "Пухівка" }, "geometry": { "type": "Point", "coordinates": [ 30.7168625, 50.5908854 ] } },
{ "type": "Feature", "properties": { "element": "node", "id": 337519284, "name": "Новомирівка" }, "geometry": { "type": "Point", "coordinates": [ 29.690901, 50.589981 ] } },
{ "type": "Feature", "properties": { "element": "node", "id": 337519304, "name": "Озерщина" }, "geometry": { "type": "Point", "coordinates": [ 29.7694041, 50.5821394 ] } },
{ "type": "Feature", "properties": { "element": "node", "id": 337519314, "name": "Гостомель" }, "geometry": { "type": "Point", "coordinates": [ 30.25909, 50.58826 ] } },
{ "type": "Feature", "properties": { "element": "node", "id": 337519319, "name": "Покровське" }, "geometry": { "type": "Point", "coordinates": [ 31.0754855, 50.5880232 ] } },
{ "type": "Feature", "properties": { "element": "node", "id": 337519366, "name": "Середівка" }, "geometry": { "type": "Point", "coordinates": [ 31.85726, 50.585861 ] } },
{ "type": "Feature", "properties": { "element": "node", "id": 337519388, "name": "Клавдієво-Тарасове" }, "geometry": { "type": "Point", "coordinates": [ 30.0095, 50.58414 ] } },
{ "type": "Feature", "properties": { "element": "node", "id": 337519402, "name": "Мироцьке" }, "geometry": { "type": "Point", "coordinates": [ 30.122995, 50.581749 ] } },
{ "type": "Feature", "properties": { "element": "node", "id": 337519408, "name": "Волосінь" }, "geometry": { "type": "Point", "coordinates": [ 29.6676275, 50.5842229 ] } },
{ "type": "Feature", "properties": { "element": "node", "id": 337519437, "name": "Нова Гребля" }, "geometry": { "type": "Point", "coordinates": [ 29.886589, 50.580711 ] } },
{ "type": "Feature", "properties": { "element": "node", "id": 337519450, "name": "Скибин" }, "geometry": { "type": "Point", "coordinates": [ 30.8318677, 50.5805633 ] } },
{ "type": "Feature", "properties": { "element": "node", "id": 337519453, "name": "Микуличі" }, "geometry": { "type": "Point", "coordinates": [ 30.0791575, 50.5758173 ] } },
{ "type": "Feature", "properties": { "element": "node", "id": 337519458, "name": "Підлісся" }, "geometry": { "type": "Point", "coordinates": [ 31.0125977, 50.5755289 ] } },
{ "type": "Feature", "properties": { "element": "node", "id": 337519458, "name": "Підлісся" }, "geometry": { "type": "Point", "coordinates": [ 31.0125977, 50.5755289 ] } },
{ "type": "Feature", "properties": { "element": "node", "id": 337519508, "name": "Осещина" }, "geometry": { "type": "Point", "coordinates": [ 30.54783, 50.57556 ] } },
{ "type": "Feature", "properties": { "element": "node", "id": 337519549, "name": "Димівське" }, "geometry": { "type": "Point", "coordinates": [ 31.07346, 50.572811 ] } },
{ "type": "Feature", "properties": { "element": "node", "id": 337519630, "name": "Немішаєве" }, "geometry": { "type": "Point", "coordinates": [ 30.1015029, 50.56801 ] } },
{ "type": "Feature", "properties": { "element": "node", "id": 337519657, "name": "Горенка" }, "geometry": { "type": "Point", "coordinates": [ 30.3122576, 50.5595665 ] } },
{ "type": "Feature", "properties": { "element": "node", "id": 337519664, "name": "Пороскотень" }, "geometry": { "type": "Point", "coordinates": [ 29.9554029, 50.565608 ] } },
{ "type": "Feature", "properties": { "element": "node", "id": 337519681, "name": "Світильня" }, "geometry": { "type": "Point", "coordinates": [ 31.15517, 50.56423 ] } },
{ "type": "Feature", "properties": { "element": "node", "id": 337519683, "name": "Калинівка" }, "geometry": { "type": "Point", "coordinates": [ 30.8228756, 50.5637731 ] } },
{ "type": "Feature", "properties": { "element": "node", "id": 337519687, "name": "Забуяння" }, "geometry": { "type": "Point", "coordinates": [ 29.651169, 50.561516 ] } },
{ "type": "Feature", "properties": { "element": "node", "id": 337519753, "name": "Зазим’я" }, "geometry": { "type": "Point", "coordinates": [ 30.6749443, 50.5739473 ] } },
{ "type": "Feature", "properties": { "element": "node", "id": 337519775, "name": "Олександринівка" }, "geometry": { "type": "Point", "coordinates": [ 31.792639, 50.559498 ] } },
{ "type": "Feature", "properties": { "element": "node", "id": 337519825, "name": "Погреби" }, "geometry": { "type": "Point", "coordinates": [ 30.6425219, 50.5546463 ] } },
{ "type": "Feature", "properties": { "element": "node", "id": 337519864, "name": "Аркадіївка" }, "geometry": { "type": "Point", "coordinates": [ 31.860001, 50.55793 ] } },
{ "type": "Feature", "properties": { "element": "node", "id": 337519872, "name": "Кулажинці" }, "geometry": { "type": "Point", "coordinates": [ 31.2107001, 50.5546697 ] } },
{ "type": "Feature", "properties": { "element": "node", "id": 337519908, "name": "Зоря" }, "geometry": { "type": "Point", "coordinates": [ 30.9446227, 50.5550547 ] } },
{ "type": "Feature", "properties": { "element": "node", "id": 337519910, "name": "Андріївка" }, "geometry": { "type": "Point", "coordinates": [ 29.832422, 50.551182 ] } },
{ "type": "Feature", "properties": { "element": "node", "id": 337519932, "name": "Ворзель" }, "geometry": { "type": "Point", "coordinates": [ 30.1562891, 50.5457287 ] } },
{ "type": "Feature", "properties": { "element": "node", "id": 337519935, "name": "Королівка" }, "geometry": { "type": "Point", "coordinates": [ 29.735222, 50.549206 ] } },
{ "type": "Feature", "properties": { "element": "node", "id": 337520000, "name": "Червона Гірка" }, "geometry": { "type": "Point", "coordinates": [ 29.880917, 50.547817 ] } },
{ "type": "Feature", "properties": { "element": "node", "id": 337520017, "name": "Плоске" }, "geometry": { "type": "Point", "coordinates": [ 31.09406, 50.54397 ] } },
{ "type": "Feature", "properties": { "element": "node", "id": 337520062, "name": "Перемога" }, "geometry": { "type": "Point", "coordinates": [ 30.8252477, 50.5429842 ] } },
{ "type": "Feature", "properties": { "element": "node", "id": 337520097, "name": "Терлещина" }, "geometry": { "type": "Point", "coordinates": [ 31.9218807, 50.5396915 ] } },
{ "type": "Feature", "properties": { "element": "node", "id": 337520150, "name": "Діброва" }, "geometry": { "type": "Point", "coordinates": [ 30.030489, 50.535511 ] } },
{ "type": "Feature", "properties": { "element": "node", "id": 337520196, "name": "Іллінське" }, "geometry": { "type": "Point", "coordinates": [ 31.973154, 50.536659 ] } },
{ "type": "Feature", "properties": { "element": "node", "id": 337520211, "name": "Ферма" }, "geometry": { "type": "Point", "coordinates": [ 29.6923953, 50.5343721 ] } },
{ "type": "Feature", "properties": { "element": "node", "id": 337520233, "name": "Красне" }, "geometry": { "type": "Point", "coordinates": [ 31.716841, 50.531269 ] } },
{ "type": "Feature", "properties": { "element": "node", "id": 337520236, "name": "Квітневе" }, "geometry": { "type": "Point", "coordinates": [ 30.8458859, 50.5332605 ] } },
{ "type": "Feature", "properties": { "element": "node", "id": 337520307, "name": "Красилівка" }, "geometry": { "type": "Point", "coordinates": [ 30.91175, 50.52578 ] } },
{ "type": "Feature", "properties": { "element": "node", "id": 337520429, "name": "Турівка" }, "geometry": { "type": "Point", "coordinates": [ 31.97331, 50.51754 ] } },
{ "type": "Feature", "properties": { "element": "node", "id": 337520457, "name": "Усівка" }, "geometry": { "type": "Point", "coordinates": [ 31.6812038, 50.51548 ] } },
{ "type": "Feature", "properties": { "element": "node", "id": 337520462, "name": "Плахтянка" }, "geometry": { "type": "Point", "coordinates": [ 29.896891, 50.515141 ] } },
{ "type": "Feature", "properties": { "element": "node", "id": 337520480, "name": "Козинці" }, "geometry": { "type": "Point", "coordinates": [ 30.05825, 50.51479 ] } },
{ "type": "Feature", "properties": { "element": "node", "id": 337520486, "name": "Полковниче" }, "geometry": { "type": "Point", "coordinates": [ 32.0461318, 50.5084869 ] } },
{ "type": "Feature", "properties": { "element": "node", "id": 337520491, "name": "Лозовик" }, "geometry": { "type": "Point", "coordinates": [ 29.85294, 50.514111 ] } },
{ "type": "Feature", "properties": { "element": "node", "id": 337520519, "name": "Софіївка" }, "geometry": { "type": "Point", "coordinates": [ 31.6092951, 50.5161357 ] } },
{ "type": "Feature", "properties": { "element": "node", "id": 337520591, "name": "Липівка" }, "geometry": { "type": "Point", "coordinates": [ 29.817579, 50.509991 ] } },
{ "type": "Feature", "properties": { "element": "node", "id": 337520601, "name": "Комарівка" }, "geometry": { "type": "Point", "coordinates": [ 29.518887, 50.5070074 ] } },
{ "type": "Feature", "properties": { "element": "node", "id": 337520653, "name": "Пасківщина" }, "geometry": { "type": "Point", "coordinates": [ 31.919399, 50.50827 ] } },
{ "type": "Feature", "properties": { "element": "node", "id": 337520710, "name": "Михайлівка-Рубежівка" }, "geometry": { "type": "Point", "coordinates": [ 30.148943, 50.50415 ] } },
{ "type": "Feature", "properties": { "element": "node", "id": 337520787, "name": "Перемога" }, "geometry": { "type": "Point", "coordinates": [ 31.25061, 50.49831 ] } },
{ "type": "Feature", "properties": { "element": "node", "id": 337520802, "name": "Забуччя" }, "geometry": { "type": "Point", "coordinates": [ 30.17189, 50.497631 ] } },
{ "type": "Feature", "properties": { "element": "node", "id": 337520849, "name": "Згурівка" }, "geometry": { "type": "Point", "coordinates": [ 31.7691817, 50.4950666 ] } },
{ "type": "Feature", "properties": { "element": "node", "id": 337520861, "name": "Коцюбинське" }, "geometry": { "type": "Point", "coordinates": [ 30.3337903, 50.4904717 ] } },
{ "type": "Feature", "properties": { "element": "node", "id": 337520864, "name": "Урсалівка" }, "geometry": { "type": "Point", "coordinates": [ 31.960083, 50.492836 ] } },
{ "type": "Feature", "properties": { "element": "node", "id": 337520886, "name": "Щасливе" }, "geometry": { "type": "Point", "coordinates": [ 31.851952, 50.493046 ] } },
{ "type": "Feature", "properties": { "element": "node", "id": 337520890, "name": "Великий Крупіль" }, "geometry": { "type": "Point", "coordinates": [ 31.506041, 50.491791 ] } },
{ "type": "Feature", "properties": { "element": "node", "id": 337520891, "name": "Лук’янівка" }, "geometry": { "type": "Point", "coordinates": [ 31.379297, 50.492161 ] } },
{ "type": "Feature", "properties": { "element": "node", "id": 337520913, "name": "Малий Крупіль" }, "geometry": { "type": "Point", "coordinates": [ 31.52836, 50.490761 ] } },
{ "type": "Feature", "properties": { "element": "node", "id": 337520940, "name": "Хмільна" }, "geometry": { "type": "Point", "coordinates": [ 30.034206, 50.491299 ] } },
{ "type": "Feature", "properties": { "element": "node", "id": 337521008, "name": "Ніжиловичі" }, "geometry": { "type": "Point", "coordinates": [ 29.63665, 50.485271 ] } },
{ "type": "Feature", "properties": { "element": "node", "id": 337521066, "name": "Мар’янівка" }, "geometry": { "type": "Point", "coordinates": [ 29.9595973, 50.4802829 ] } },
{ "type": "Feature", "properties": { "element": "node", "id": 337521069, "name": "Гавронщина" }, "geometry": { "type": "Point", "coordinates": [ 29.8761751, 50.47832 ] } },
{ "type": "Feature", "properties": { "element": "node", "id": 337521076, "name": "Сотницьке" }, "geometry": { "type": "Point", "coordinates": [ 30.95913, 50.47943 ] } },
{ "type": "Feature", "properties": { "element": "node", "id": 337521186, "name": "Рудницьке" }, "geometry": { "type": "Point", "coordinates": [ 31.36425, 50.473942 ] } },
{ "type": "Feature", "properties": { "element": "node", "id": 337521243, "name": "Княжичі" }, "geometry": { "type": "Point", "coordinates": [ 30.7861932, 50.4603562 ] } },
{ "type": "Feature", "properties": { "element": "node", "id": 337521278, "name": "Займище" }, "geometry": { "type": "Point", "coordinates": [ 30.993811, 50.468788 ] } },
{ "type": "Feature", "properties": { "element": "node", "id": 337521306, "name": "Черевки" }, "geometry": { "type": "Point", "coordinates": [ 31.749121, 50.467411 ] } },
{ "type": "Feature", "properties": { "element": "node", "id": 337521327, "name": "Стара Оржиця" }, "geometry": { "type": "Point", "coordinates": [ 31.903301, 50.464027 ] } },
{ "type": "Feature", "properties": { "element": "node", "id": 337521330, "name": "Миколаївка" }, "geometry": { "type": "Point", "coordinates": [ 30.0224772, 50.463681 ] } },
{ "type": "Feature", "properties": { "element": "node", "id": 337521405, "name": "Войтове" }, "geometry": { "type": "Point", "coordinates": [ 31.562349, 50.464668 ] } },
{ "type": "Feature", "properties": { "element": "node", "id": 337521455, "name": "Димівка" }, "geometry": { "type": "Point", "coordinates": [ 31.18126, 50.46123 ] } },
{ "type": "Feature", "properties": { "element": "node", "id": 337521479, "name": "Вишеград" }, "geometry": { "type": "Point", "coordinates": [ 29.915609, 50.459244 ] } },
{ "type": "Feature", "properties": { "element": "node", "id": 337521484, "name": "Лукаші" }, "geometry": { "type": "Point", "coordinates": [ 31.44116, 50.458832 ] } },
{ "type": "Feature", "properties": { "element": "node", "id": 337521506, "name": "Борівка" }, "geometry": { "type": "Point", "coordinates": [ 29.546009, 50.456429 ] } },
{ "type": "Feature", "properties": { "element": "node", "id": 337521515, "name": "Маковище" }, "geometry": { "type": "Point", "coordinates": [ 29.8732033, 50.4517721 ] } },
{ "type": "Feature", "properties": { "element": "node", "id": 337521523, "name": "Стоянка" }, "geometry": { "type": "Point", "coordinates": [ 30.226139, 50.454021 ] } },
{ "type": "Feature", "properties": { "element": "node", "id": 337521559, "name": "Перегуди" }, "geometry": { "type": "Point", "coordinates": [ 31.0496441, 50.4513669 ] } },
{ "type": "Feature", "properties": { "element": "node", "id": 337521562, "name": "Зурівка" }, "geometry": { "type": "Point", "coordinates": [ 29.749388, 50.453514 ] } },
{ "type": "Feature", "properties": { "element": "node", "id": 337521587, "name": "Вільне" }, "geometry": { "type": "Point", "coordinates": [ 31.71925, 50.450932 ] } },
{ "type": "Feature", "properties": { "element": "node", "id": 337521599, "name": "Пайки" }, "geometry": { "type": "Point", "coordinates": [ 32.004368, 50.451626 ] } },
{ "type": "Feature", "properties": { "element": "node", "id": 337521617, "name": "Колонщина" }, "geometry": { "type": "Point", "coordinates": [ 29.9479598, 50.4533563 ] } },
{ "type": "Feature", "properties": { "element": "node", "id": 337521620, "name": "Дударків" }, "geometry": { "type": "Point", "coordinates": [ 30.95158, 50.449219 ] } },
{ "type": "Feature", "properties": { "element": "node", "id": 337521623, "name": "Лісне" }, "geometry": { "type": "Point", "coordinates": [ 30.112526, 50.446705 ] } },
{ "type": "Feature", "properties": { "element": "node", "id": 337521727, "name": "Нова Олександрівка" }, "geometry": { "type": "Point", "coordinates": [ 31.6602, 50.442009 ] } },
{ "type": "Feature", "properties": { "element": "node", "id": 337521730, "name": "Мила" }, "geometry": { "type": "Point", "coordinates": [ 30.172302, 50.441376 ] } },
{ "type": "Feature", "properties": { "element": "node", "id": 337521732, "name": "Горбачівка" }, "geometry": { "type": "Point", "coordinates": [ 32.018074, 50.442287 ] } },
{ "type": "Feature", "properties": { "element": "node", "id": 337521734, "name": "Володимирське" }, "geometry": { "type": "Point", "coordinates": [ 31.839966, 50.447533 ] } },
{ "type": "Feature", "properties": { "element": "node", "id": 337521755, "name": "Садки-Строївка" }, "geometry": { "type": "Point", "coordinates": [ 29.5121226, 50.4435881 ] } },
{ "type": "Feature", "properties": { "element": "node", "id": 337521774, "name": "Буча" }, "geometry": { "type": "Point", "coordinates": [ 30.0787182, 50.4450169 ] } },
{ "type": "Feature", "properties": { "element": "node", "id": 337521784, "name": "Свобода" }, "geometry": { "type": "Point", "coordinates": [ 31.771105, 50.436592 ] } },
{ "type": "Feature", "properties": { "element": "node", "id": 337521818, "name": "Пилипче" }, "geometry": { "type": "Point", "coordinates": [ 31.545292, 50.439747 ] } },
{ "type": "Feature", "properties": { "element": "node", "id": 337521825, "name": "Фасівочка" }, "geometry": { "type": "Point", "coordinates": [ 29.797258, 50.437771 ] } },
{ "type": "Feature", "properties": { "element": "node", "id": 337521848, "name": "Петропавлівська Борщагівка" }, "geometry": { "type": "Point", "coordinates": [ 30.345961, 50.437199 ] } },
{ "type": "Feature", "properties": { "element": "node", "id": 337521851, "name": "Мрія" }, "geometry": { "type": "Point", "coordinates": [ 30.128195, 50.437183 ] } },
{ "type": "Feature", "properties": { "element": "node", "id": 337521869, "name": "Гурівщина" }, "geometry": { "type": "Point", "coordinates": [ 30.093267, 50.433834 ] } },
{ "type": "Feature", "properties": { "element": "node", "id": 337521896, "name": "Любимівка" }, "geometry": { "type": "Point", "coordinates": [ 30.07095, 50.434448 ] } },
{ "type": "Feature", "properties": { "element": "node", "id": 337521909, "name": "Чайки" }, "geometry": { "type": "Point", "coordinates": [ 30.285191, 50.432739 ] } },
{ "type": "Feature", "properties": { "element": "node", "id": 337521961, "name": "Григорівка" }, "geometry": { "type": "Point", "coordinates": [ 31.15242, 50.429649 ] } },
{ "type": "Feature", "properties": { "element": "node", "id": 337521969, "name": "Старе" }, "geometry": { "type": "Point", "coordinates": [ 31.6244126, 50.4280892 ] } },
{ "type": "Feature", "properties": { "element": "node", "id": 337521982, "name": "Шевченкове" }, "geometry": { "type": "Point", "coordinates": [ 31.829212, 50.429501 ] } },
{ "type": "Feature", "properties": { "element": "node", "id": 337521994, "name": "Березівка" }, "geometry": { "type": "Point", "coordinates": [ 29.995577, 50.429073 ] } },
{ "type": "Feature", "properties": { "element": "node", "id": 337522045, "name": "Завалівка" }, "geometry": { "type": "Point", "coordinates": [ 29.732796, 50.427784 ] } },
{ "type": "Feature", "properties": { "element": "node", "id": 337522101, "name": "Лисиця" }, "geometry": { "type": "Point", "coordinates": [ 29.499943, 50.422504 ] } },
{ "type": "Feature", "properties": { "element": "node", "id": 337522109, "name": "Мала Стариця" }, "geometry": { "type": "Point", "coordinates": [ 31.165119, 50.42347 ] } },
{ "type": "Feature", "properties": { "element": "node", "id": 337522140, "name": "Гостролуччя" }, "geometry": { "type": "Point", "coordinates": [ 31.28837, 50.421818 ] } },
{ "type": "Feature", "properties": { "element": "node", "id": 337522214, "name": "Корніївка" }, "geometry": { "type": "Point", "coordinates": [ 31.4581884, 50.4167034 ] } },
{ "type": "Feature", "properties": { "element": "node", "id": 337522233, "name": "Гореничі" }, "geometry": { "type": "Point", "coordinates": [ 30.211489, 50.419331 ] } },
{ "type": "Feature", "properties": { "element": "node", "id": 337522257, "name": "Калинівка" }, "geometry": { "type": "Point", "coordinates": [ 29.7859366, 50.4149679 ] } },
{ "type": "Feature", "properties": { "element": "node", "id": 337522274, "name": "Софіївська Борщагівка" }, "geometry": { "type": "Point", "coordinates": [ 30.365957, 50.41188 ] } },
{ "type": "Feature", "properties": { "element": "node", "id": 337522283, "name": "Северинівка" }, "geometry": { "type": "Point", "coordinates": [ 29.970621, 50.4147728 ] } },
{ "type": "Feature", "properties": { "element": "node", "id": 337522332, "name": "Безуглівка" }, "geometry": { "type": "Point", "coordinates": [ 31.766279, 50.4142 ] } },
{ "type": "Feature", "properties": { "element": "node", "id": 337522339, "name": "Любомирівка" }, "geometry": { "type": "Point", "coordinates": [ 31.961884, 50.414387 ] } },
{ "type": "Feature", "properties": { "element": "node", "id": 337522359, "name": "Ярешки" }, "geometry": { "type": "Point", "coordinates": [ 31.561165, 50.40781 ] } },
{ "type": "Feature", "properties": { "element": "node", "id": 337522394, "name": "Лизогубова Слобода" }, "geometry": { "type": "Point", "coordinates": [ 31.912439, 50.40834 ] } },
{ "type": "Feature", "properties": { "element": "node", "id": 337522407, "name": "Паришків" }, "geometry": { "type": "Point", "coordinates": [ 31.42189, 50.413471 ] } },
{ "type": "Feature", "properties": { "element": "node", "id": 337522422, "name": "Вознесенське" }, "geometry": { "type": "Point", "coordinates": [ 32.025661, 50.406113 ] } },
{ "type": "Feature", "properties": { "element": "node", "id": 337522438, "name": "Небелиця" }, "geometry": { "type": "Point", "coordinates": [ 29.5976323, 50.4132735 ] } },
{ "type": "Feature", "properties": { "element": "node", "id": 337522452, "name": "Копилів" }, "geometry": { "type": "Point", "coordinates": [ 29.895861, 50.40871 ] } },
{ "type": "Feature", "properties": { "element": "node", "id": 337522469, "name": "Майське" }, "geometry": { "type": "Point", "coordinates": [ 31.8695751, 50.4084198 ] } },
{ "type": "Feature", "properties": { "element": "node", "id": 337522515, "name": "Левченкове" }, "geometry": { "type": "Point", "coordinates": [ 31.7016455, 50.4098467 ] } },
{ "type": "Feature", "properties": { "element": "node", "id": 337522521, "name": "Шнурів Ліс" }, "geometry": { "type": "Point", "coordinates": [ 29.472891, 50.405621 ] } },
{ "type": "Feature", "properties": { "element": "node", "id": 337522526, "name": "Селище" }, "geometry": { "type": "Point", "coordinates": [ 31.303141, 50.40493 ] } },
{ "type": "Feature", "properties": { "element": "node", "id": 337522537, "name": "Шевченкове" }, "geometry": { "type": "Point", "coordinates": [ 30.257334, 50.411633 ] } },
{ "type": "Feature", "properties": { "element": "node", "id": 337522572, "name": "Мала Олександрівка" }, "geometry": { "type": "Point", "coordinates": [ 30.823946, 50.397221 ] } },
{ "type": "Feature", "properties": { "element": "node", "id": 337522589, "name": "Сулимівка" }, "geometry": { "type": "Point", "coordinates": [ 31.18504, 50.400471 ] } },
{ "type": "Feature", "properties": { "element": "node", "id": 337522615, "name": "Копіївка" }, "geometry": { "type": "Point", "coordinates": [ 29.6994049, 50.399163 ] } },
{ "type": "Feature", "properties": { "element": "node", "id": 337522631, "name": "Озерне" }, "geometry": { "type": "Point", "coordinates": [ 31.7681369, 50.3986021 ] } },
{ "type": "Feature", "properties": { "element": "node", "id": 337522639, "name": "Гречана Гребля" }, "geometry": { "type": "Point", "coordinates": [ 32.0677178, 50.3939609 ] } },
{ "type": "Feature", "properties": { "element": "node", "id": 337522640, "name": "Безуглівка" }, "geometry": { "type": "Point", "coordinates": [ 30.838619, 50.398411 ] } },
{ "type": "Feature", "properties": { "element": "node", "id": 337522703, "name": "Велика Олександрівка" }, "geometry": { "type": "Point", "coordinates": [ 30.873413, 50.393509 ] } },
{ "type": "Feature", "properties": { "element": "node", "id": 337522736, "name": "Сезенків" }, "geometry": { "type": "Point", "coordinates": [ 31.236879, 50.394291 ] } },
{ "type": "Feature", "properties": { "element": "node", "id": 337522773, "name": "Проліски" }, "geometry": { "type": "Point", "coordinates": [ 30.77964, 50.392143 ] } },
{ "type": "Feature", "properties": { "element": "node", "id": 337522804, "name": "Горбовичі" }, "geometry": { "type": "Point", "coordinates": [ 30.15266, 50.390511 ] } },
{ "type": "Feature", "properties": { "element": "node", "id": 337522817, "name": "Білогородка" }, "geometry": { "type": "Point", "coordinates": [ 30.22785, 50.390171 ] } },
{ "type": "Feature", "properties": { "element": "node", "id": 337522817, "name": "Білогородка" }, "geometry": { "type": "Point", "coordinates": [ 30.22785, 50.390171 ] } },
{ "type": "Feature", "properties": { "element": "node", "id": 337522819, "name": "Гнатівка" }, "geometry": { "type": "Point", "coordinates": [ 30.213091, 50.390171 ] } },
{ "type": "Feature", "properties": { "element": "node", "id": 337522831, "name": "Рожів" }, "geometry": { "type": "Point", "coordinates": [ 29.650896, 50.387287 ] } },
{ "type": "Feature", "properties": { "element": "node", "id": 337522848, "name": "Червона Слобода" }, "geometry": { "type": "Point", "coordinates": [ 29.680599, 50.38879 ] } },
{ "type": "Feature", "properties": { "element": "node", "id": 337522857, "name": "Мала Березанка" }, "geometry": { "type": "Point", "coordinates": [ 31.71307, 50.388451 ] } },
{ "type": "Feature", "properties": { "element": "node", "id": 337522929, "name": "Вишневе" }, "geometry": { "type": "Point", "coordinates": [ 31.971701, 50.385822 ] } },
{ "type": "Feature", "properties": { "element": "node", "id": 337522939, "name": "Мотижин" }, "geometry": { "type": "Point", "coordinates": [ 29.926069, 50.38261 ] } },
{ "type": "Feature", "properties": { "element": "node", "id": 337522940, "name": "Фасова" }, "geometry": { "type": "Point", "coordinates": [ 29.812429, 50.38261 ] } },
{ "type": "Feature", "properties": { "element": "node", "id": 337522968, "name": "Чубинське" }, "geometry": { "type": "Point", "coordinates": [ 30.852011, 50.381931 ] } },
{ "type": "Feature", "properties": { "element": "node", "id": 337522973, "name": "Людвинівка" }, "geometry": { "type": "Point", "coordinates": [ 29.827539, 50.38158 ] } },
{ "type": "Feature", "properties": { "element": "node", "id": 337522980, "name": "Хлопків" }, "geometry": { "type": "Point", "coordinates": [ 31.355953, 50.382751 ] } },
{ "type": "Feature", "properties": { "element": "node", "id": 337522999, "name": "Бакумівка" }, "geometry": { "type": "Point", "coordinates": [ 31.43498, 50.380211 ] } },
{ "type": "Feature", "properties": { "element": "node", "id": 337523009, "name": "Пасічна" }, "geometry": { "type": "Point", "coordinates": [ 31.313156, 50.378773 ] } },
{ "type": "Feature", "properties": { "element": "node", "id": 337523017, "name": "Неграші" }, "geometry": { "type": "Point", "coordinates": [ 30.0737, 50.37849 ] } },
{ "type": "Feature", "properties": { "element": "node", "id": 337523024, "name": "Щасливе" }, "geometry": { "type": "Point", "coordinates": [ 30.79125, 50.378151 ] } },
{ "type": "Feature", "properties": { "element": "node", "id": 337523024, "name": "Щасливе" }, "geometry": { "type": "Point", "coordinates": [ 30.79125, 50.378151 ] } },
{ "type": "Feature", "properties": { "element": "node", "id": 337523069, "name": "Святопетрівське" }, "geometry": { "type": "Point", "coordinates": [ 30.322779, 50.385208 ] } },
{ "type": "Feature", "properties": { "element": "node", "id": 337523069, "name": "Святопетрівське" }, "geometry": { "type": "Point", "coordinates": [ 30.322779, 50.385208 ] } },
{ "type": "Feature", "properties": { "element": "node", "id": 337523085, "name": "Нова Оржиця" }, "geometry": { "type": "Point", "coordinates": [ 31.9486098, 50.3793047 ] } },
{ "type": "Feature", "properties": { "element": "node", "id": 337523105, "name": "Швачиха" }, "geometry": { "type": "Point", "coordinates": [ 31.279964, 50.373184 ] } },
{ "type": "Feature", "properties": { "element": "node", "id": 337523167, "name": "Лукомщина" }, "geometry": { "type": "Point", "coordinates": [ 32.1237874, 50.3713597 ] } },
{ "type": "Feature", "properties": { "element": "node", "id": 337523201, "name": "Супоївка" }, "geometry": { "type": "Point", "coordinates": [ 31.740023, 50.377007 ] } },
{ "type": "Feature", "properties": { "element": "node", "id": 337523205, "name": "Лехнівка" }, "geometry": { "type": "Point", "coordinates": [ 31.545851, 50.382767 ] } },
{ "type": "Feature", "properties": { "element": "node", "id": 337523237, "name": "Власівка" }, "geometry": { "type": "Point", "coordinates": [ 31.23859, 50.368881 ] } },
{ "type": "Feature", "properties": { "element": "node", "id": 337523246, "name": "Лука" }, "geometry": { "type": "Point", "coordinates": [ 30.16914, 50.368542 ] } },
{ "type": "Feature", "properties": { "element": "node", "id": 337523246, "name": "Лука" }, "geometry": { "type": "Point", "coordinates": [ 30.16914, 50.368542 ] } },
{ "type": "Feature", "properties": { "element": "node", "id": 337523259, "name": "Жуківка" }, "geometry": { "type": "Point", "coordinates": [ 31.640631, 50.368191 ] } },
{ "type": "Feature", "properties": { "element": "node", "id": 337523264, "name": "Артемівка" }, "geometry": { "type": "Point", "coordinates": [ 31.076946, 50.367714 ] } },
{ "type": "Feature", "properties": { "element": "node", "id": 337523275, "name": "Кучаків" }, "geometry": { "type": "Point", "coordinates": [ 31.1202626, 50.3714635 ] } },
{ "type": "Feature", "properties": { "element": "node", "id": 337523429, "name": "Дернівка" }, "geometry": { "type": "Point", "coordinates": [ 31.37112, 50.364422 ] } },
{ "type": "Feature", "properties": { "element": "node", "id": 337523432, "name": "Великий Карашин" }, "geometry": { "type": "Point", "coordinates": [ 29.6478311, 50.3602457 ] } },
{ "type": "Feature", "properties": { "element": "node", "id": 337523450, "name": "Баришівка" }, "geometry": { "type": "Point", "coordinates": [ 31.3256722, 50.3645295 ] } },
{ "type": "Feature", "properties": { "element": "node", "id": 337523515, "name": "Недра" }, "geometry": { "type": "Point", "coordinates": [ 31.510509, 50.362011 ] } },
{ "type": "Feature", "properties": { "element": "node", "id": 337523657, "name": "Сотниківка" }, "geometry": { "type": "Point", "coordinates": [ 31.8346, 50.358582 ] } },
{ "type": "Feature", "properties": { "element": "node", "id": 337523682, "name": "Лебедин" }, "geometry": { "type": "Point", "coordinates": [ 31.148573, 50.3626384 ] } },
{ "type": "Feature", "properties": { "element": "node", "id": 337523698, "name": "Новосілки" }, "geometry": { "type": "Point", "coordinates": [ 30.461655, 50.355579 ] } },
{ "type": "Feature", "properties": { "element": "node", "id": 337523698, "name": "Новосілки" }, "geometry": { "type": "Point", "coordinates": [ 30.461655, 50.355579 ] } },
{ "type": "Feature", "properties": { "element": "node", "id": 337523708, "name": "Бобриця" }, "geometry": { "type": "Point", "coordinates": [ 30.18597, 50.356522 ] } },
{ "type": "Feature", "properties": { "element": "node", "id": 337523708, "name": "Бобриця" }, "geometry": { "type": "Point", "coordinates": [ 30.18597, 50.356522 ] } },
{ "type": "Feature", "properties": { "element": "node", "id": 337523745, "name": "Зелене" }, "geometry": { "type": "Point", "coordinates": [ 32.021709, 50.355492 ] } },
{ "type": "Feature", "properties": { "element": "node", "id": 337523752, "name": "Червоне" }, "geometry": { "type": "Point", "coordinates": [ 31.9506329, 50.3552738 ] } },
{ "type": "Feature", "properties": { "element": "node", "id": 337523794, "name": "Ясногородка" }, "geometry": { "type": "Point", "coordinates": [ 30.011221, 50.353432 ] } },
{ "type": "Feature", "properties": { "element": "node", "id": 337523875, "name": "Морозівка" }, "geometry": { "type": "Point", "coordinates": [ 31.208132, 50.348339 ] } },
{ "type": "Feature", "properties": { "element": "node", "id": 337523899, "name": "Мала Супоївка" }, "geometry": { "type": "Point", "coordinates": [ 31.663971, 50.349312 ] } },
{ "type": "Feature", "properties": { "element": "node", "id": 337523941, "name": "Гензерівка" }, "geometry": { "type": "Point", "coordinates": [ 32.0444984, 50.348181 ] } },
{ "type": "Feature", "properties": { "element": "node", "id": 337523966, "name": "Садове" }, "geometry": { "type": "Point", "coordinates": [ 31.54038, 50.347252 ] } },
{ "type": "Feature", "properties": { "element": "node", "id": 337523990, "name": "Чабани" }, "geometry": { "type": "Point", "coordinates": [ 30.427101, 50.341434 ] } },
{ "type": "Feature", "properties": { "element": "node", "id": 337524014, "name": "Тарас" }, "geometry": { "type": "Point", "coordinates": [ 30.321604, 50.3372 ] } },
{ "type": "Feature", "properties": { "element": "node", "id": 337524094, "name": "Дзюбівка" }, "geometry": { "type": "Point", "coordinates": [ 31.735041, 50.341068 ] } },
{ "type": "Feature", "properties": { "element": "node", "id": 337524128, "name": "Малий Карашин" }, "geometry": { "type": "Point", "coordinates": [ 29.6338407, 50.3486757 ] } },
{ "type": "Feature", "properties": { "element": "node", "id": 337524193, "name": "Розумівка" }, "geometry": { "type": "Point", "coordinates": [ 31.7943046, 50.3357735 ] } },
{ "type": "Feature", "properties": { "element": "node", "id": 337524197, "name": "Юрівка" }, "geometry": { "type": "Point", "coordinates": [ 30.3645441, 50.3361459 ] } },
{ "type": "Feature", "properties": { "element": "node", "id": 337524223, "name": "Шевченкове" }, "geometry": { "type": "Point", "coordinates": [ 31.72163, 50.335533 ] } },
{ "type": "Feature", "properties": { "element": "node", "id": 337524225, "name": "Коржі" }, "geometry": { "type": "Point", "coordinates": [ 31.3512, 50.334888 ] } },
{ "type": "Feature", "properties": { "element": "node", "id": 337524240, "name": "Мар’янівка" }, "geometry": { "type": "Point", "coordinates": [ 29.721041, 50.336159 ] } },
{ "type": "Feature", "properties": { "element": "node", "id": 337524243, "name": "Черкасівка" }, "geometry": { "type": "Point", "coordinates": [ 31.74156, 50.333172 ] } },
{ "type": "Feature", "properties": { "element": "node", "id": 337524331, "name": "Шовкове" }, "geometry": { "type": "Point", "coordinates": [ 31.3073804, 50.3323134 ] } },
{ "type": "Feature", "properties": { "element": "node", "id": 337524359, "name": "левийкняж" }, "geometry": { "type": "Point", "coordinates": [ 30.135839, 50.329399 ] } },
{ "type": "Feature", "properties": { "element": "node", "id": 337524369, "name": "Гнідин" }, "geometry": { "type": "Point", "coordinates": [ 30.705759, 50.328709 ] } },
{ "type": "Feature", "properties": { "element": "node", "id": 337524405, "name": "Рокитне" }, "geometry": { "type": "Point", "coordinates": [ 31.8116, 50.327679 ] } },
{ "type": "Feature", "properties": { "element": "node", "id": 337524444, "name": "Хотів" }, "geometry": { "type": "Point", "coordinates": [ 30.468647, 50.326321 ] } },
{ "type": "Feature", "properties": { "element": "node", "id": 337524444, "name": "Хотів" }, "geometry": { "type": "Point", "coordinates": [ 30.468647, 50.326321 ] } },
{ "type": "Feature", "properties": { "element": "node", "id": 337524500, "name": "Лозовий Яр" }, "geometry": { "type": "Point", "coordinates": [ 31.9946406, 50.3223055 ] } },
{ "type": "Feature", "properties": { "element": "node", "id": 337524505, "name": "Вітрівка" }, "geometry": { "type": "Point", "coordinates": [ 29.8697665, 50.3218826 ] } },
{ "type": "Feature", "properties": { "element": "node", "id": 337524531, "name": "Віта-Поштова" }, "geometry": { "type": "Point", "coordinates": [ 30.3809098, 50.3197168 ] } },
{ "type": "Feature", "properties": { "element": "node", "id": 337524559, "name": "Кулябівка" }, "geometry": { "type": "Point", "coordinates": [ 31.68388, 50.317657 ] } },
{ "type": "Feature", "properties": { "element": "node", "id": 337524567, "name": "Тужилів" }, "geometry": { "type": "Point", "coordinates": [ 31.701971, 50.304466 ] } },
{ "type": "Feature", "properties": { "element": "node", "id": 337524569, "name": "Нове" }, "geometry": { "type": "Point", "coordinates": [ 30.30673, 50.320549 ] } },
{ "type": "Feature", "properties": { "element": "node", "id": 337524591, "name": "Червоне Заріччя" }, "geometry": { "type": "Point", "coordinates": [ 31.737804, 50.313641 ] } },
{ "type": "Feature", "properties": { "element": "node", "id": 337524608, "name": "Забір’я" }, "geometry": { "type": "Point", "coordinates": [ 30.21996, 50.31601 ] } },
{ "type": "Feature", "properties": { "element": "node", "id": 337524664, "name": "Березань" }, "geometry": { "type": "Point", "coordinates": [ 31.4689158, 50.3132713 ] } },
{ "type": "Feature", "properties": { "element": "node", "id": 337524712, "name": "Лемешівка" }, "geometry": { "type": "Point", "coordinates": [ 32.073551, 50.31155 ] } },
{ "type": "Feature", "properties": { "element": "node", "id": 337524716, "name": "Райківщина" }, "geometry": { "type": "Point", "coordinates": [ 31.786364, 50.310463 ] } },
{ "type": "Feature", "properties": { "element": "node", "id": 337524723, "name": "Пашківка" }, "geometry": { "type": "Point", "coordinates": [ 29.8738899, 50.3061559 ] } },
{ "type": "Feature", "properties": { "element": "node", "id": 337524734, "name": "Іванків" }, "geometry": { "type": "Point", "coordinates": [ 31.05707, 50.322426 ] } },
{ "type": "Feature", "properties": { "element": "node", "id": 337524798, "name": "Лісники" }, "geometry": { "type": "Point", "coordinates": [ 30.51796, 50.30846 ] } },
{ "type": "Feature", "properties": { "element": "node", "id": 337524827, "name": "Новосілки" }, "geometry": { "type": "Point", "coordinates": [ 30.070271, 50.30674 ] } },
{ "type": "Feature", "properties": { "element": "node", "id": 337524868, "name": "Кайнари" }, "geometry": { "type": "Point", "coordinates": [ 31.8810219, 50.3055455 ] } },
{ "type": "Feature", "properties": { "element": "node", "id": 337524878, "name": "Лишня" }, "geometry": { "type": "Point", "coordinates": [ 29.950451, 50.30537 ] } },
{ "type": "Feature", "properties": { "element": "node", "id": 337524902, "name": "Вишеньки" }, "geometry": { "type": "Point", "coordinates": [ 30.71468, 50.30434 ] } },
{ "type": "Feature", "properties": { "element": "node", "id": 337524946, "name": "Кременище" }, "geometry": { "type": "Point", "coordinates": [ 30.466331, 50.298744 ] } },
{ "type": "Feature", "properties": { "element": "node", "id": 337524946, "name": "Кременище" }, "geometry": { "type": "Point", "coordinates": [ 30.466331, 50.298744 ] } },
{ "type": "Feature", "properties": { "element": "node", "id": 337525006, "name": "Борщів" }, "geometry": { "type": "Point", "coordinates": [ 31.367285, 50.297169 ] } },
{ "type": "Feature", "properties": { "element": "node", "id": 337525027, "name": "Яблуневе" }, "geometry": { "type": "Point", "coordinates": [ 31.63929, 50.287479 ] } },
{ "type": "Feature", "properties": { "element": "node", "id": 337525053, "name": "Годунівка" }, "geometry": { "type": "Point", "coordinates": [ 32.0596463, 50.2946165 ] } },
{ "type": "Feature", "properties": { "element": "node", "id": 337525059, "name": "Дубове" }, "geometry": { "type": "Point", "coordinates": [ 31.598049, 50.29369 ] } },
{ "type": "Feature", "properties": { "element": "node", "id": 337525079, "name": "Горобіївка" }, "geometry": { "type": "Point", "coordinates": [ 29.879721, 50.29266 ] } },
{ "type": "Feature", "properties": { "element": "node", "id": 337525099, "name": "Малютянка" }, "geometry": { "type": "Point", "coordinates": [ 30.27145, 50.290951 ] } },
{ "type": "Feature", "properties": { "element": "node", "id": 337525101, "name": "Мостище" }, "geometry": { "type": "Point", "coordinates": [ 30.03422, 50.290951 ] } },
{ "type": "Feature", "properties": { "element": "node", "id": 337525162, "name": "Устинкова Гребля" }, "geometry": { "type": "Point", "coordinates": [ 31.295589, 50.287861 ] } },
{ "type": "Feature", "properties": { "element": "node", "id": 337525182, "name": "Іванків" }, "geometry": { "type": "Point", "coordinates": [ 30.2999071, 50.2865348 ] } },
{ "type": "Feature", "properties": { "element": "node", "id": 337525186, "name": "Грузьке" }, "geometry": { "type": "Point", "coordinates": [ 29.7625168, 50.2920461 ] } },
{ "type": "Feature", "properties": { "element": "node", "id": 337525222, "name": "Соколівщина" }, "geometry": { "type": "Point", "coordinates": [ 31.712971, 50.281109 ] } },
{ "type": "Feature", "properties": { "element": "node", "id": 337525262, "name": "Григорівка" }, "geometry": { "type": "Point", "coordinates": [ 31.660475, 50.284649 ] } },
{ "type": "Feature", "properties": { "element": "node", "id": 337525267, "name": "Яготин" }, "geometry": { "type": "Point", "coordinates": [ 31.7634861, 50.2758913 ] } },
{ "type": "Feature", "properties": { "element": "node", "id": 337525313, "name": "Зайців" }, "geometry": { "type": "Point", "coordinates": [ 30.3579437, 50.2788612 ] } },
{ "type": "Feature", "properties": { "element": "node", "id": 337525318, "name": "Мархалівка" }, "geometry": { "type": "Point", "coordinates": [ 30.3655492, 50.2754066 ] } },
{ "type": "Feature", "properties": { "element": "node", "id": 337525320, "name": "Затишне" }, "geometry": { "type": "Point", "coordinates": [ 30.868044, 50.280613 ] } },
{ "type": "Feature", "properties": { "element": "node", "id": 337525338, "name": "Бобриця" }, "geometry": { "type": "Point", "coordinates": [ 30.225451, 50.27927 ] } },
{ "type": "Feature", "properties": { "element": "node", "id": 337525347, "name": "Божки" }, "geometry": { "type": "Point", "coordinates": [ 31.903271, 50.278931 ] } },
{ "type": "Feature", "properties": { "element": "node", "id": 337525367, "name": "Жоравка" }, "geometry": { "type": "Point", "coordinates": [ 32.0540135, 50.2776161 ] } },
{ "type": "Feature", "properties": { "element": "node", "id": 337525378, "name": "Липовий Скиток" }, "geometry": { "type": "Point", "coordinates": [ 30.205879, 50.277214 ] } },
{ "type": "Feature", "properties": { "element": "node", "id": 337525384, "name": "Іванковичі" }, "geometry": { "type": "Point", "coordinates": [ 30.422171, 50.276871 ] } },
{ "type": "Feature", "properties": { "element": "node", "id": 337525405, "name": "Сули-ка" }, "geometry": { "type": "Point", "coordinates": [ 31.9640088, 50.275649 ] } },
{ "type": "Feature", "properties": { "element": "node", "id": 337525495, "name": "Кириївщина" }, "geometry": { "type": "Point", "coordinates": [ 31.094027, 50.272152 ] } },
{ "type": "Feature", "properties": { "element": "node", "id": 337525498, "name": "Ходосівка" }, "geometry": { "type": "Point", "coordinates": [ 30.522079, 50.272751 ] } },
{ "type": "Feature", "properties": { "element": "node", "id": 337525498, "name": "Ходосівка" }, "geometry": { "type": "Point", "coordinates": [ 30.522079, 50.272751 ] } },
{ "type": "Feature", "properties": { "element": "node", "id": 337525541, "name": "Лебедівка" }, "geometry": { "type": "Point", "coordinates": [ 32.01931, 50.271381 ] } },
{ "type": "Feature", "properties": { "element": "node", "id": 337525543, "name": "Хмельовик" }, "geometry": { "type": "Point", "coordinates": [ 31.597498, 50.268898 ] } },
{ "type": "Feature", "properties": { "element": "node", "id": 337525549, "name": "Дзвінкове" }, "geometry": { "type": "Point", "coordinates": [ 30.048981, 50.27103 ] } },
{ "type": "Feature", "properties": { "element": "node", "id": 337525565, "name": "Весела Слобідка" }, "geometry": { "type": "Point", "coordinates": [ 29.743158, 50.270184 ] } },
{ "type": "Feature", "properties": { "element": "node", "id": 337525575, "name": "Городище" }, "geometry": { "type": "Point", "coordinates": [ 30.998993, 50.26857 ] } },
{ "type": "Feature", "properties": { "element": "node", "id": 337525632, "name": "Варовичі" }, "geometry": { "type": "Point", "coordinates": [ 30.2090502, 50.2694323 ] } },
{ "type": "Feature", "properties": { "element": "node", "id": 337525663, "name": "Бишів" }, "geometry": { "type": "Point", "coordinates": [ 29.88693, 50.266571 ] } },
{ "type": "Feature", "properties": { "element": "node", "id": 337525663, "name": "Бишів" }, "geometry": { "type": "Point", "coordinates": [ 29.88693, 50.266571 ] } },
{ "type": "Feature", "properties": { "element": "node", "id": 337525669, "name": "Кожухівка" }, "geometry": { "type": "Point", "coordinates": [ 30.232388, 50.255188 ] } },
{ "type": "Feature", "properties": { "element": "node", "id": 337525672, "name": "Переяславське" }, "geometry": { "type": "Point", "coordinates": [ 31.6532093, 50.2596125 ] } },
{ "type": "Feature", "properties": { "element": "node", "id": 337525680, "name": "Леонівка" }, "geometry": { "type": "Point", "coordinates": [ 29.987869, 50.264851 ] } },
{ "type": "Feature", "properties": { "element": "node", "id": 337525738, "name": "Любарці" }, "geometry": { "type": "Point", "coordinates": [ 31.16066, 50.261761 ] } },
{ "type": "Feature", "properties": { "element": "node", "id": 337525778, "name": "Семенівка" }, "geometry": { "type": "Point", "coordinates": [ 31.517847, 50.254684 ] } },
{ "type": "Feature", "properties": { "element": "node", "id": 337525786, "name": "Яблунівка" }, "geometry": { "type": "Point", "coordinates": [ 29.98135, 50.259022 ] } },
{ "type": "Feature", "properties": { "element": "node", "id": 337525824, "name": "Глеваха" }, "geometry": { "type": "Point", "coordinates": [ 30.3059171, 50.259673 ] } },
{ "type": "Feature", "properties": { "element": "node", "id": 337525828, "name": "Двірківщина" }, "geometry": { "type": "Point", "coordinates": [ 31.876413, 50.254421 ] } },
{ "type": "Feature", "properties": { "element": "node", "id": 337525835, "name": "Заострів" }, "geometry": { "type": "Point", "coordinates": [ 31.396923, 50.258156 ] } },
{ "type": "Feature", "properties": { "element": "node", "id": 337525864, "name": "Козичанка" }, "geometry": { "type": "Point", "coordinates": [ 29.77776, 50.254902 ] } },
{ "type": "Feature", "properties": { "element": "node", "id": 337525933, "name": "Нові Опачичі" }, "geometry": { "type": "Point", "coordinates": [ 29.791748, 50.25293 ] } },
{ "type": "Feature", "properties": { "element": "node", "id": 337525948, "name": "Підгірці" }, "geometry": { "type": "Point", "coordinates": [ 30.5539871, 50.2461998 ] } },
{ "type": "Feature", "properties": { "element": "node", "id": 337525954, "name": "Засупоївка" }, "geometry": { "type": "Point", "coordinates": [ 31.726601, 50.25243 ] } },
{ "type": "Feature", "properties": { "element": "node", "id": 337525989, "name": "Перевіз" }, "geometry": { "type": "Point", "coordinates": [ 30.002699, 50.242241 ] } },
{ "type": "Feature", "properties": { "element": "node", "id": 337526014, "name": "Черняхівка" }, "geometry": { "type": "Point", "coordinates": [ 31.94824, 50.249401 ] } },
{ "type": "Feature", "properties": { "element": "node", "id": 337526025, "name": "Зелений Бір" }, "geometry": { "type": "Point", "coordinates": [ 30.375139, 50.248371 ] } },
{ "type": "Feature", "properties": { "element": "node", "id": 337526098, "name": "Воронівщина" }, "geometry": { "type": "Point", "coordinates": [ 31.856573, 50.242157 ] } },
{ "type": "Feature", "properties": { "element": "node", "id": 337526128, "name": "Гвоздів" }, "geometry": { "type": "Point", "coordinates": [ 30.48431, 50.243912 ] } },
{ "type": "Feature", "properties": { "element": "node", "id": 337526218, "name": "Романків" }, "geometry": { "type": "Point", "coordinates": [ 30.575653, 50.238983 ] } },
{ "type": "Feature", "properties": { "element": "node", "id": 337526225, "name": "Леляки" }, "geometry": { "type": "Point", "coordinates": [ 31.537291, 50.238762 ] } },
{ "type": "Feature", "properties": { "element": "node", "id": 337526238, "name": "Данилівка" }, "geometry": { "type": "Point", "coordinates": [ 30.217211, 50.238419 ] } },
{ "type": "Feature", "properties": { "element": "node", "id": 337526277, "name": "Веселинівка" }, "geometry": { "type": "Point", "coordinates": [ 31.2748993, 50.2404469 ] } },
{ "type": "Feature", "properties": { "element": "node", "id": 337526299, "name": "Масківці" }, "geometry": { "type": "Point", "coordinates": [ 31.3373627, 50.2301521 ] } },
{ "type": "Feature", "properties": { "element": "node", "id": 337526305, "name": "Креничі" }, "geometry": { "type": "Point", "coordinates": [ 30.513689, 50.236351 ] } },
{ "type": "Feature", "properties": { "element": "node", "id": 337526316, "name": "Рославичі" }, "geometry": { "type": "Point", "coordinates": [ 30.437452, 50.243832 ] } },
{ "type": "Feature", "properties": { "element": "node", "id": 337526318, "name": "Крушинка" }, "geometry": { "type": "Point", "coordinates": [ 30.36518, 50.23361 ] } },
{ "type": "Feature", "properties": { "element": "node", "id": 337526328, "name": "Юрівка" }, "geometry": { "type": "Point", "coordinates": [ 29.70326, 50.232922 ] } },
{ "type": "Feature", "properties": { "element": "node", "id": 337526337, "name": "Конопельки" }, "geometry": { "type": "Point", "coordinates": [ 29.8011, 50.232239 ] } },
{ "type": "Feature", "properties": { "element": "node", "id": 337526406, "name": "Лубське" }, "geometry": { "type": "Point", "coordinates": [ 29.8836, 50.227154 ] } },
{ "type": "Feature", "properties": { "element": "node", "id": 337526421, "name": "Калинівка" }, "geometry": { "type": "Point", "coordinates": [ 30.2261781, 50.2257254 ] } },
{ "type": "Feature", "properties": { "element": "node", "id": 337526439, "name": "Григорівка" }, "geometry": { "type": "Point", "coordinates": [ 31.687243, 50.228104 ] } },
{ "type": "Feature", "properties": { "element": "node", "id": 337526458, "name": "Пристроми" }, "geometry": { "type": "Point", "coordinates": [ 31.43326, 50.222969 ] } },
{ "type": "Feature", "properties": { "element": "node", "id": 337526461, "name": "Коптевичівка" }, "geometry": { "type": "Point", "coordinates": [ 31.9832107, 50.222961 ] } },
{ "type": "Feature", "properties": { "element": "node", "id": 337526469, "name": "Вороньків" }, "geometry": { "type": "Point", "coordinates": [ 30.90111, 50.222279 ] } },
{ "type": "Feature", "properties": { "element": "node", "id": 337526512, "name": "Чорногородка" }, "geometry": { "type": "Point", "coordinates": [ 29.97551, 50.220909 ] } },
{ "type": "Feature", "properties": { "element": "node", "id": 337526523, "name": "Ферма" }, "geometry": { "type": "Point", "coordinates": [ 29.916121, 50.220558 ] } },
{ "type": "Feature", "properties": { "element": "node", "id": 337526533, "name": "Плесецьке" }, "geometry": { "type": "Point", "coordinates": [ 30.122372, 50.220356 ] } },
{ "type": "Feature", "properties": { "element": "node", "id": 337526558, "name": "Богданівка" }, "geometry": { "type": "Point", "coordinates": [ 32.017731, 50.21785 ] } },
{ "type": "Feature", "properties": { "element": "node", "id": 337526574, "name": "Соснівка" }, "geometry": { "type": "Point", "coordinates": [ 29.845051, 50.219189 ] } },
{ "type": "Feature", "properties": { "element": "node", "id": 337526584, "name": "Козлів" }, "geometry": { "type": "Point", "coordinates": [ 31.57642, 50.218849 ] } },
{ "type": "Feature", "properties": { "element": "node", "id": 337526601, "name": "Багрин" }, "geometry": { "type": "Point", "coordinates": [ 30.211742, 50.215286 ] } },
{ "type": "Feature", "properties": { "element": "node", "id": 337526625, "name": "Василівка" }, "geometry": { "type": "Point", "coordinates": [ 29.684031, 50.216789 ] } },
{ "type": "Feature", "properties": { "element": "node", "id": 337526640, "name": "Кобці" }, "geometry": { "type": "Point", "coordinates": [ 30.302349, 50.216099 ] } },
{ "type": "Feature", "properties": { "element": "node", "id": 337526715, "name": "Крячки" }, "geometry": { "type": "Point", "coordinates": [ 30.2896522, 50.210909 ] } },
{ "type": "Feature", "properties": { "element": "node", "id": 337526719, "name": "Вільне" }, "geometry": { "type": "Point", "coordinates": [ 29.7749147, 50.2121175 ] } },
{ "type": "Feature", "properties": { "element": "node", "id": 337526750, "name": "Черняхівка" }, "geometry": { "type": "Point", "coordinates": [ 31.930712, 50.219185 ] } },
{ "type": "Feature", "properties": { "element": "node", "id": 337526767, "name": "Студеники" }, "geometry": { "type": "Point", "coordinates": [ 31.6137276, 50.2026673 ] } },
{ "type": "Feature", "properties": { "element": "node", "id": 337526793, "name": "Малі Дмитровичі" }, "geometry": { "type": "Point", "coordinates": [ 30.521391, 50.207859 ] } },
{ "type": "Feature", "properties": { "element": "node", "id": 337526830, "name": "Борисів" }, "geometry": { "type": "Point", "coordinates": [ 30.3426658, 50.2114675 ] } },
{ "type": "Feature", "properties": { "element": "node", "id": 337526846, "name": "Панфили" }, "geometry": { "type": "Point", "coordinates": [ 31.775105, 50.208942 ] } },
{ "type": "Feature", "properties": { "element": "node", "id": 337526874, "name": "Дерев’янки" }, "geometry": { "type": "Point", "coordinates": [ 30.381832, 50.204098 ] } },
{ "type": "Feature", "properties": { "element": "node", "id": 337526879, "name": "Вільшанська Нива" },